[
{"No":1,"location":"（株）熊野新聞社","long":135.941472,"lat":33.625177,"capacity":"","address":"那智勝浦町築地8-5-9"},
{"No":2,"location":"（旧）加茂第二小学校","long":135.195954,"lat":34.116381,"capacity":315,"address":"海南市下津町市坪240番地"},
{"No":3,"location":"(旧)出合小学校","long":135.8617421,"lat":33.6072919,"capacity":208,"address":"那智勝浦町小匠58"},
{"No":4,"location":"（旧）仁義小学校","long":135.220994,"lat":34.123353,"capacity":193,"address":"海南市下津町引尾756番地1"},
{"No":5,"location":"(旧)太田中学校","long":135.888857,"lat":33.5973166,"capacity":528,"address":"那智勝浦町南大居220"},
{"No":6,"location":"（旧）第一中学校","long":135.1988206,"lat":34.1582703,"capacity":712,"address":"海南市船尾257番地"},
{"No":7,"location":"(旧)妙法小学校","long":135.8808147,"lat":33.6495127,"capacity":333,"address":"那智勝浦町南平野1199"},
{"No":8,"location":"(高津尾川)区長宅","long":135.294705,"lat":33.99213111,"capacity":"","address":"日高川町大字高津尾川65"},
{"No":9,"location":"ＪＡグリーン日高付近","long":135.1250556,"lat":33.96676596,"capacity":"","address":"由良町里地内"},
{"No":10,"location":"Joshin　御坊店","long":135.151289,"lat":33.891227,"capacity":"","address":"御坊市薗336-1"},
{"No":11,"location":"JR紀伊勝浦駅","long":135.941814,"lat":33.628102,"capacity":"","address":"那智勝浦町築地6-1-1"},
{"No":12,"location":"JR南部駅前","long":135.324648,"lat":33.767125,"capacity":"","address":"みなべ町芝371-2"},
{"No":13,"location":"NPO法人どんぐりはうす","long":135.4674398,"lat":33.7134518,"capacity":50,"address":"上富田町市ノ瀬1251"},
{"No":14,"location":"WAY美浜店","long":135.151766,"lat":33.88634,"capacity":"","address":"美浜町田井426-2"},
{"No":15,"location":"アズマハウス日方ビル","long":135.209113,"lat":34.155899,"capacity":"","address":"海南市日方1271‐99"},
{"No":16,"location":"あっそ児童館","long":135.416948,"lat":33.703396,"capacity":80,"address":"上富田町朝来2284"},
{"No":17,"location":"アンソレイユ日置","long":135.459095,"lat":33.57991,"capacity":20,"address":"白浜町大古13番地"},
{"No":18,"location":"アンソレイユ日置敷地","long":135.459095,"lat":33.57991,"capacity":"","address":"白浜町大古13番地"},
{"No":19,"location":"いきいきふれあい館","long":135.1894416,"lat":34.0382185,"capacity":210,"address":"湯浅町湯浅2276-2"},
{"No":20,"location":"いわで御殿","long":135.3192525,"lat":34.2507367,"capacity":50,"address":"岩出市清水5-1"},
{"No":21,"location":"うめ振興館","long":135.327094,"lat":33.790697,"capacity":"","address":"みなべ町谷口538-1"},
{"No":22,"location":"エステートウチダⅡ","long":135.938344,"lat":33.630943,"capacity":"","address":"那智勝浦町朝日4-92"},
{"No":23,"location":"オークワ ロマンシティ御坊店","long":135.149438,"lat":33.897732,"capacity":19000,"address":"御坊市湯川町財部181"},
{"No":24,"location":"お堂","long":135.31649,"lat":33.958204,"capacity":"","address":"日高川町下田原218"},
{"No":25,"location":"かえるの里","long":135.22258,"lat":33.822432,"capacity":"","address":""},
{"No":26,"location":"かぐのみ苑周辺","long":135.157338,"lat":34.133827,"capacity":"","address":"海南市下津町丸田1111-1付近"},
{"No":27,"location":"かつらぎ総合文化会館","long":135.5049145,"lat":34.2949374,"capacity":1685,"address":"かつらぎ町丁ノ町2454"},
{"No":28,"location":"かつらぎ町地域福祉センター","long":135.504271,"lat":34.2955487,"capacity":392,"address":"かつらぎ町丁ノ町2338-2"},
{"No":29,"location":"かみや荘駐車場","long":135.0883472,"lat":33.9599823,"capacity":"","address":"由良町神谷地内"},
{"No":30,"location":"かわべテニス公園","long":135.213536,"lat":33.895788,"capacity":"","address":"日高川町和佐2095"},
{"No":31,"location":"かわべ保育所","long":135.197215,"lat":33.908614,"capacity":220,"address":"日高川町小熊6076"},
{"No":32,"location":"カンフォータブル一番館","long":135.143826,"lat":33.903723,"capacity":"","address":"美浜町和田2102-1"},
{"No":33,"location":"きのくに林産","long":135.49367,"lat":33.562968,"capacity":"","address":""},
{"No":34,"location":"きびドーム","long":135.217285,"lat":34.057422,"capacity":100,"address":"有田川町下津野2021"},
{"No":35,"location":"きび会館","long":135.2322935,"lat":34.070782,"capacity":200,"address":"有田川町庄814-1"},
{"No":36,"location":"きび体育館","long":135.2327501,"lat":34.0708258,"capacity":500,"address":"有田川町庄814-2"},
{"No":37,"location":"きび保健福祉センター","long":135.216132,"lat":34.07368,"capacity":150,"address":"有田川町角75-1"},
{"No":38,"location":"きらら子ども園","long":135.2738594,"lat":34.1599715,"capacity":388,"address":"海南市沖野々434番地"},
{"No":39,"location":"くすのき公園","long":135.31657,"lat":34.280016,"capacity":711,"address":"岩出市桜台422"},
{"No":40,"location":"グリーンハイツ　カトレア棟","long":135.164446,"lat":33.893197,"capacity":"","address":"御坊市島454"},
{"No":41,"location":"グリーンハイツ　さくら棟","long":135.164328,"lat":33.894144,"capacity":"","address":"御坊市島614-2"},
{"No":42,"location":"グリーンハイツ　すずらん棟","long":135.164544,"lat":33.893582,"capacity":"","address":"御坊市島462-1"},
{"No":43,"location":"グリーンハイツ　すみれ棟","long":135.164619,"lat":33.892775,"capacity":"","address":"御坊市島454"},
{"No":44,"location":"グリーンハイツ　秋桜棟","long":135.164199,"lat":33.892661,"capacity":"","address":"御坊市島454"},
{"No":45,"location":"ゲートボール場付近","long":135.1255,"lat":33.96087834,"capacity":"","address":"由良町里地内"},
{"No":46,"location":"ゲートボール場付近","long":135.1153333,"lat":33.96514753,"capacity":"","address":"由良町江ノ駒地内"},
{"No":47,"location":"けやき公園","long":135.316206,"lat":34.282685,"capacity":282,"address":"岩出市桜台426"},
{"No":48,"location":"こじか保育所","long":135.1547584,"lat":34.1165411,"capacity":350,"address":"海南市下津町上2番地"},
{"No":49,"location":"さぎのせ公園","long":135.276002,"lat":34.25731,"capacity":14800,"address":"岩出市中島"},
{"No":50,"location":"さくら会館","long":135.329045,"lat":33.76912,"capacity":"","address":"みなべ町芝7-2"},
{"No":51,"location":"さくら公園","long":135.31605,"lat":34.280828,"capacity":1383,"address":"岩出市桜台423"},
{"No":52,"location":"サニービーチ自治会避難場所","long":135.371375,"lat":33.680492,"capacity":"","address":"白浜町堅田2500番361"},
{"No":53,"location":"サンホール(岩出市陶芸館)","long":135.2822178,"lat":34.270893,"capacity":150,"address":"岩出市山719"},
{"No":54,"location":"シーハウス熊野灘","long":135.941688,"lat":33.624942,"capacity":"","address":"那智勝浦町築地8-5-5"},
{"No":55,"location":"シスコアパート周辺","long":135.128105,"lat":33.89722488,"capacity":"","address":""},
{"No":56,"location":"すさみ漁業協同組合","long":135.4906039,"lat":33.5490674,"capacity":20,"address":"すさみ町周参見4866-7"},
{"No":57,"location":"すさみ町商工会館","long":135.4971201,"lat":33.5525269,"capacity":20,"address":"すさみ町周参見3911-4"},
{"No":58,"location":"すさみ町総合センター","long":135.4960481,"lat":33.5498696,"capacity":200,"address":"すさみ町周参見4120-1"},
{"No":59,"location":"すさみ町総合センタ－の屋上","long":135.496217,"lat":33.549775,"capacity":"","address":"すさみ町周参見4089"},
{"No":60,"location":"スポーツ公園体育館","long":135.3080218,"lat":34.1752963,"capacity":270,"address":"紀美野町小畑853-2"},
{"No":61,"location":"たき家具店の三階","long":135.495487,"lat":33.548048,"capacity":"","address":""},
{"No":62,"location":"たちばな支援学校","long":135.165893,"lat":34.0244514,"capacity":450,"address":"広川町和田21-3"},
{"No":63,"location":"ドラックモリヤマ那智勝浦店裏の高台","long":135.935917,"lat":33.62908,"capacity":"","address":"那智勝浦町朝日1-221"},
{"No":64,"location":"トンネル出口付近","long":135.1261528,"lat":33.9610653,"capacity":"","address":"由良町里地内"},
{"No":65,"location":"なかつ保育所","long":135.286576,"lat":33.958415,"capacity":80,"address":"日高川町高津尾1071"},
{"No":66,"location":"ニュータウン勝浦区コミュニティセンター","long":135.9605786,"lat":33.6596056,"capacity":67,"address":"那智勝浦町宇久井1730-154"},
{"No":67,"location":"ネピアル白浜","long":135.358268,"lat":33.688038,"capacity":"","address":"白浜町3773番地17"},
{"No":68,"location":"パチンコ東京勝浦店　立体駐車場","long":135.936716,"lat":33.623813,"capacity":"","address":"那智勝浦町湯川897-96"},
{"No":69,"location":"パブリック白浜カントリークラブ","long":135.406407,"lat":33.697163,"capacity":"","address":"上富田町南紀ノ台63-1"},
{"No":70,"location":"はるかぜ保育所","long":135.262742,"lat":33.421557,"capacity":100,"address":"上富田町岩田1674-1"},
{"No":71,"location":"パルスイン勝浦","long":135.935544,"lat":33.637304,"capacity":"","address":"那智勝浦町天満441-38"},
{"No":72,"location":"ひかり保育所","long":135.286457,"lat":33.7859587,"capacity":66,"address":"みなべ町東岩代2059"},
{"No":73,"location":"ビジネスホテルくすもと","long":135.942964,"lat":33.62628,"capacity":"","address":"那智勝浦町築地7-6-25"},
{"No":74,"location":"ビジネスホテル勝浦","long":135.933584,"lat":33.641017,"capacity":"","address":"那智勝浦町浜ノ宮84"},
{"No":75,"location":"プライスカット駐車場周辺","long":135.21002,"lat":34.168975,"capacity":"","address":"海南市岡田611-1"},
{"No":76,"location":"ふるさとセンター","long":135.5193076,"lat":34.1386916,"capacity":583,"address":"かつらぎ町花園梁瀬779"},
{"No":77,"location":"ふれあいプラザ","long":135.1847494,"lat":34.0327478,"capacity":187,"address":"湯浅町別所61-1"},
{"No":78,"location":"プレア前","long":135.321258,"lat":33.769534,"capacity":"","address":"みなべ町北道198"},
{"No":79,"location":"ぼたん荘","long":135.789462,"lat":33.535897,"capacity":"","address":"古座川町月野瀬881-1"},
{"No":80,"location":"ホテルグリーンヒル美浜","long":135.143328,"lat":33.90321,"capacity":"","address":"美浜町和田2193"},
{"No":81,"location":"ホテルシーモア駐車場","long":135.33784,"lat":33.675017,"capacity":"","address":"白浜町1729番21"},
{"No":82,"location":"ホテル浦島社宅（朝日2丁目）","long":135.938155,"lat":33.629626,"capacity":"","address":"那智勝浦町朝日2-230"},
{"No":83,"location":"ホテル浦島社宅（朝日4丁目）","long":135.938071,"lat":33.63169,"capacity":"","address":"那智勝浦町朝日4-116"},
{"No":84,"location":"ホテル川久","long":135.357132,"lat":33.688223,"capacity":"","address":"白浜町3745番2"},
{"No":85,"location":"ホテル裏側周辺","long":135.193903,"lat":34.160445,"capacity":"","address":"海南市船尾407－3"},
{"No":86,"location":"まづま保育園","long":135.315572,"lat":33.87718,"capacity":20,"address":"印南町田ノ垣内150-1"},
{"No":87,"location":"ママさんソフトボール場","long":135.195571,"lat":34.036469,"capacity":"","address":""},
{"No":88,"location":"マンションニューハマ","long":135.208432,"lat":34.153917,"capacity":"","address":"海南市日方1289‐27"},
{"No":89,"location":"みずほ会館","long":135.1862161,"lat":33.8695009,"capacity":26,"address":"印南町南谷102"},
{"No":90,"location":"みなべ町ふれ愛センター","long":135.3302929,"lat":33.7930552,"capacity":300,"address":"みなべ町東本庄100"},
{"No":91,"location":"むくのき公園","long":135.317654,"lat":34.279365,"capacity":703,"address":"岩出市桜台427"},
{"No":92,"location":"もとまち保育所","long":135.3623315,"lat":33.7342918,"capacity":195,"address":"田辺市天神崎3-28"},
{"No":93,"location":"やすらぎ園","long":135.3113568,"lat":34.1519105,"capacity":150,"address":"紀美野町下佐々1408-7"},
{"No":94,"location":"ゆうゆうコミュニテイホーム","long":135.5279949,"lat":34.3006949,"capacity":88,"address":"かつらぎ町妙寺146-2"},
{"No":95,"location":"ゆうゆう館","long":135.3268848,"lat":33.7522606,"capacity":183,"address":"みなべ町埴田1444-1"},
{"No":96,"location":"ラ・メール白浜","long":135.351417,"lat":33.690521,"capacity":"","address":"白浜町156番１"},
{"No":97,"location":"ロマンシティ（３階以上）","long":135.148785,"lat":33.897624,"capacity":"","address":"御坊市湯川町財部181"},
{"No":98,"location":"わくわく公園","long":135.187859,"lat":34.031527,"capacity":"","address":""},
{"No":99,"location":"わんぱく公園","long":135.318158,"lat":34.282197,"capacity":1734,"address":"岩出市桜台425"},
{"No":100,"location":"わんぱく公園周辺","long":135.232778,"lat":34.158003,"capacity":"","address":"海南市大野中995-2付近"},
{"No":101,"location":"阿戸コミュニティセンター","long":135.1157826,"lat":33.9567031,"capacity":80,"address":"由良町阿戸687-8"},
{"No":102,"location":"阿戸葦原会会場","long":135.1145405,"lat":33.9555289,"capacity":30,"address":"由良町阿戸366"},
{"No":103,"location":"阿戸消防車庫付近","long":135.1175833,"lat":33.95586333,"capacity":"","address":"由良町阿戸地内"},
{"No":104,"location":"阿田木集会所","long":135.3627189,"lat":33.98028194,"capacity":"","address":"日高川町皆瀬252-1"},
{"No":105,"location":"阿尾後田高台","long":135.070963,"lat":33.9038257,"capacity":26,"address":"日高町阿尾435"},
{"No":106,"location":"阿尾青年会場","long":135.0714804,"lat":33.9042066,"capacity":32,"address":"日高町阿尾532"},
{"No":107,"location":"阿弥陀寺周辺","long":135.142556,"lat":34.107699,"capacity":"","address":"下津町下津1331付近"},
{"No":108,"location":"愛口集会所","long":135.378385,"lat":33.958174,"capacity":"","address":"日高川町初湯川33-1"},
{"No":109,"location":"愛川児童館","long":135.386537,"lat":33.981223,"capacity":"","address":"日高川町愛川68-3"},
{"No":110,"location":"愛徳荘","long":135.38702,"lat":33.959754,"capacity":"","address":"日高川町初湯川202"},
{"No":111,"location":"旭・学園集会所","long":135.178095,"lat":34.024097,"capacity":30,"address":"広川町広441"},
{"No":112,"location":"旭集会所","long":135.55958,"lat":34.2873981,"capacity":32,"address":"九度山町九度山1290"},
{"No":113,"location":"芦山会館","long":135.4835333,"lat":33.68585556,"capacity":"","address":"上富田町生馬2980-1"},
{"No":114,"location":"粟生住民センター","long":135.34379,"lat":34.048099,"capacity":17,"address":"有田川町粟生442-1"},
{"No":115,"location":"粟生小学校体育館","long":135.3423118,"lat":34.0479757,"capacity":125,"address":"有田川町粟生428"},
{"No":116,"location":"安井集会所","long":135.345029,"lat":34.1453841,"capacity":23,"address":"紀美野町安井134-2"},
{"No":117,"location":"安楽寺","long":135.3137401,"lat":33.928322,"capacity":30,"address":"日高川町三佐131"},
{"No":118,"location":"安楽寺敷地","long":135.474521,"lat":33.581638,"capacity":"","address":"白浜町安宅386番"},
{"No":119,"location":"安居集会所","long":135.482302,"lat":33.607393,"capacity":"","address":"白浜町安居6番地"},
{"No":120,"location":"安宅観音敷地","long":135.46759,"lat":33.577141,"capacity":"","address":"白浜町安宅493番1"},
{"No":121,"location":"安宅区避難場所","long":135.466722,"lat":33.580966,"capacity":"","address":"白浜町安宅763番"},
{"No":122,"location":"安諦地区基幹集落センター","long":135.490469,"lat":34.119272,"capacity":60,"address":"有田川町板尾219-3"},
{"No":123,"location":"安諦中学校体育館","long":135.4938103,"lat":34.1204683,"capacity":230,"address":"有田川町板尾339"},
{"No":124,"location":"伊佐の川集会所","long":135.2805037,"lat":33.9819602,"capacity":30,"address":"日高川町高津尾1243"},
{"No":125,"location":"伊藤川集会所","long":135.2476893,"lat":33.92467,"capacity":30,"address":"日高川町伊藤川23-2"},
{"No":126,"location":"移レストハウス","long":135.455451,"lat":34.294695,"capacity":72,"address":"かつらぎ町移82-1"},
{"No":127,"location":"衣奈小学校","long":135.1069564,"lat":33.9875183,"capacity":1500,"address":"由良町衣奈230"},
{"No":128,"location":"衣奈消防車庫付近","long":135.1090833,"lat":33.98755095,"capacity":"","address":"由良町衣奈地内"},
{"No":129,"location":"衣奈保育所","long":135.1104521,"lat":33.9852923,"capacity":200,"address":"由良町衣奈685"},
{"No":130,"location":"井関農業会館","long":135.189458,"lat":34.009302,"capacity":30,"address":"広川町井関676-1"},
{"No":131,"location":"井谷コミュニティセンター","long":135.4805572,"lat":34.1118659,"capacity":15,"address":"有田川町井谷170"},
{"No":132,"location":"井田児童会館周辺","long":135.223645,"lat":34.155044,"capacity":"","address":"海南市大野中1056-6"},
{"No":133,"location":"井田地蔵寺周辺","long":135.222138,"lat":34.157117,"capacity":"","address":"海南市井田102付近"},
{"No":134,"location":"一雨集会所","long":135.7439052,"lat":33.5359861,"capacity":32,"address":"古座川町一雨187"},
{"No":135,"location":"稲荷神社敷地","long":135.395167,"lat":33.608912,"capacity":"","address":"白浜町椿978番"},
{"No":136,"location":"稲原小学校","long":135.232118,"lat":33.859787,"capacity":100,"address":"印南町印南原4850"},
{"No":137,"location":"稲原中学校","long":135.2270169,"lat":33.859453,"capacity":141,"address":"印南町印南原1743"},
{"No":138,"location":"稲原防災センター","long":135.2326705,"lat":33.8601702,"capacity":45,"address":"印南町印南原4850"},
{"No":139,"location":"印南インターチェンジ","long":135.221518,"lat":33.824473,"capacity":"","address":""},
{"No":140,"location":"印南小学校","long":135.2178689,"lat":33.8167144,"capacity":114,"address":"印南町印南1915"},
{"No":141,"location":"印南浄水場","long":135.21794,"lat":33.823434,"capacity":"","address":""},
{"No":142,"location":"印南大権現周辺","long":135.220964,"lat":33.812338,"capacity":"","address":""},
{"No":143,"location":"印南町体育センター","long":135.2175337,"lat":33.8186392,"capacity":240,"address":"印南町印南2012"},
{"No":144,"location":"印南土地改良区事務所前","long":135.21036,"lat":33.814882,"capacity":"","address":""},
{"No":145,"location":"印南発電所上","long":135.221518,"lat":33.825533,"capacity":"","address":""},
{"No":146,"location":"宇久井区民会館","long":135.9718552,"lat":33.6599235,"capacity":72,"address":"那智勝浦町宇久井236"},
{"No":147,"location":"宇久井出張所","long":135.9726219,"lat":33.662097,"capacity":20,"address":"那智勝浦町宇久井113"},
{"No":148,"location":"宇久井小学校","long":135.9717571,"lat":33.6606304,"capacity":557,"address":"那智勝浦町宇久井214"},
{"No":149,"location":"宇久井中学校","long":135.9712548,"lat":33.6586271,"capacity":666,"address":"那智勝浦町宇久井1073"},
{"No":150,"location":"宇久井保育所","long":135.9720982,"lat":33.6597692,"capacity":90,"address":"那智勝浦町宇久井246"},
{"No":151,"location":"宇杉ヶ丘","long":135.273557,"lat":33.802187,"capacity":"","address":""},
{"No":152,"location":"宇杉コミュニティーセンター","long":135.2214951,"lat":33.8140225,"capacity":15,"address":"印南町印南2340-1"},
{"No":153,"location":"羽衣町内会避難所２","long":135.353917,"lat":33.677575,"capacity":"","address":"白浜町3249番15"},
{"No":154,"location":"羽衣町内会避難所３","long":135.357896,"lat":33.682378,"capacity":"","address":"白浜町3212番1"},
{"No":155,"location":"羽衣町内会避難所４","long":135.357194,"lat":33.680503,"capacity":"","address":"白浜町2762番4"},
{"No":156,"location":"羽衣町内会避難所５","long":135.361917,"lat":33.677309,"capacity":"","address":"白浜町3150番6"},
{"No":157,"location":"羽衣町内会避難所６","long":135.35916,"lat":33.673576,"capacity":"","address":"白浜町3183番"},
{"No":158,"location":"羽衣町内会避難所７","long":135.363563,"lat":33.676875,"capacity":"","address":"白浜町3148番38"},
{"No":159,"location":"羽衣町内会避難所８","long":135.364479,"lat":33.676545,"capacity":"","address":"白浜町3031番14"},
{"No":160,"location":"羽衣町内会避難所９","long":135.364354,"lat":33.67783,"capacity":"","address":"白浜町3031番217"},
{"No":161,"location":"浦神集会所","long":135.9041766,"lat":33.5598155,"capacity":33,"address":"那智勝浦町浦神1298-4"},
{"No":162,"location":"浦神東青年会館","long":135.8995652,"lat":33.5566145,"capacity":60,"address":"那智勝浦町浦神1183"},
{"No":163,"location":"栄区避難場所","long":135.394153,"lat":33.657303,"capacity":"","address":"白浜町栄118番11"},
{"No":164,"location":"永楽寺周辺","long":135.2292,"lat":34.169706,"capacity":"","address":"海南市且来866"},
{"No":165,"location":"永泉寺","long":135.714786,"lat":33.6660479,"capacity":69,"address":"古座川町松根546"},
{"No":166,"location":"駅前下町内会避難場所１","long":135.385986,"lat":33.674537,"capacity":"","address":"白浜町堅田1370番1"},
{"No":167,"location":"駅前集会所","long":135.324715,"lat":33.766437,"capacity":"","address":"みなべ町芝355-9"},
{"No":168,"location":"駅前上町内会避難場所１","long":135.386444,"lat":33.676597,"capacity":"","address":"白浜町堅田1465番"},
{"No":169,"location":"円鏡寺","long":135.423419,"lat":33.697077,"capacity":80,"address":"上富田町朝来1036"},
{"No":170,"location":"円明寺集会所","long":135.4131203,"lat":34.1680252,"capacity":23,"address":"紀美野町円明寺202-1"},
{"No":171,"location":"延命寺","long":135.9816083,"lat":33.6568978,"capacity":98,"address":"那智勝浦町宇久井607"},
{"No":172,"location":"猿川ふれあいセンター","long":135.2056262,"lat":33.9873847,"capacity":30,"address":"広川町下津木107"},
{"No":173,"location":"遠井コミュニティセンター","long":135.399908,"lat":34.1087517,"capacity":35,"address":"有田川町遠井443"},
{"No":174,"location":"塩津小学校","long":135.1649389,"lat":34.1320197,"capacity":321,"address":"海南市下津町塩津908番地"},
{"No":175,"location":"奥畑大師堂","long":135.1660111,"lat":34.04027778,"capacity":"","address":""},
{"No":176,"location":"押手活性館","long":135.507642,"lat":34.126345,"capacity":22,"address":"有田川町押出336-1"},
{"No":177,"location":"横山農道周辺","long":135.143624,"lat":34.127453,"capacity":"","address":"海南市下津町方1665-4"},
{"No":178,"location":"横田元日通付近","long":135.188423,"lat":34.044477,"capacity":"","address":""},
{"No":179,"location":"横田文化会館","long":135.1932881,"lat":34.0429168,"capacity":130,"address":"湯浅町栖原6"},
{"No":180,"location":"横浜会館","long":135.1202738,"lat":33.9603487,"capacity":50,"address":"由良町里202-2"},
{"No":181,"location":"王子橋南","long":135.493567,"lat":33.551679,"capacity":"","address":""},
{"No":182,"location":"王子橋北","long":135.495391,"lat":33.552609,"capacity":"","address":""},
{"No":183,"location":"王子神社裏南","long":135.494973,"lat":33.552945,"capacity":"","address":""},
{"No":184,"location":"王子神社裏北","long":135.494678,"lat":33.553021,"capacity":"","address":""},
{"No":185,"location":"岡高齢者憩の家","long":135.4421528,"lat":33.72718611,"capacity":"","address":"上富田町岡1291-1"},
{"No":186,"location":"岡小学校","long":135.4437262,"lat":33.7245262,"capacity":600,"address":"上富田町岡638-1"},
{"No":187,"location":"岡田児童館","long":135.3354421,"lat":34.2584713,"capacity":70,"address":"岩出市岡田643-4"},
{"No":188,"location":"岡田集会所","long":135.3305067,"lat":34.2589951,"capacity":30,"address":"岩出市岡田463"},
{"No":189,"location":"岡田八幡宮周辺","long":135.22555,"lat":34.172673,"capacity":"","address":"海南市岡田1181"},
{"No":190,"location":"岡本集会所","long":135.2665066,"lat":33.9523156,"capacity":30,"address":"日高川町船津1315-2"},
{"No":191,"location":"沖野々スポーツ広場","long":135.272856,"lat":34.163039,"capacity":"","address":"海南市沖野々278-1"},
{"No":192,"location":"沖野々公園","long":135.272332,"lat":34.163716,"capacity":"","address":"海南市沖野々278‐13"},
{"No":193,"location":"荻原コミュニティセンター","long":135.466264,"lat":34.289179,"capacity":84,"address":"かつらぎ町荻原353-2"},
{"No":194,"location":"温水プール周辺","long":135.227838,"lat":34.163904,"capacity":"","address":"海南市且来1387-3付近"},
{"No":195,"location":"温泉館｢海の里｣みちしおの湯","long":135.0870856,"lat":33.9383875,"capacity":131,"address":"日高町方杭100"},
{"No":196,"location":"下阿田木神社","long":135.362675,"lat":33.981207,"capacity":"","address":"日高川町皆瀬302"},
{"No":197,"location":"下鮎川児童館","long":135.4797591,"lat":33.7192586,"capacity":300,"address":"上富田町下鮎川439-3"},
{"No":198,"location":"下越方集会所","long":135.357898,"lat":33.968558,"capacity":"","address":"日高川町皆瀬111"},
{"No":199,"location":"下玄子集会所","long":135.2103195,"lat":33.9200576,"capacity":40,"address":"日高川町玄子125-1"},
{"No":200,"location":"下古沢コミュニティ消防センター","long":135.5543,"lat":34.2689,"capacity":"","address":"九度山町下古沢243-2"},
{"No":201,"location":"下江川集会所","long":135.2115616,"lat":33.8889254,"capacity":20,"address":"日高川町江川217"},
{"No":202,"location":"下佐々コミュニティセンター","long":135.3148238,"lat":34.156506,"capacity":50,"address":"紀美野町下佐々595-1"},
{"No":203,"location":"下志賀コミュニティセンター","long":135.1190129,"lat":33.9213975,"capacity":44,"address":"日高町大字志賀1018-1"},
{"No":204,"location":"下神野小学校体育館","long":135.3515225,"lat":34.1512227,"capacity":214,"address":"紀美野町神野市場214"},
{"No":205,"location":"下池付近の高台","long":135.127715,"lat":33.900903,"capacity":"","address":""},
{"No":206,"location":"下長井クラブ","long":135.8721893,"lat":33.5943577,"capacity":34,"address":"那智勝浦町長井776"},
{"No":207,"location":"下津港湾防災管理事務所","long":135.1445282,"lat":34.1110193,"capacity":100,"address":"海南市下津町下津3066番地16"},
{"No":208,"location":"下津小学校","long":135.1523874,"lat":34.1093023,"capacity":786,"address":"海南市下津町下津477番地"},
{"No":209,"location":"下津第一中学校","long":135.151784,"lat":34.1082963,"capacity":575,"address":"海南市下津町下津500番地2"},
{"No":210,"location":"下津第二中学校","long":135.1645684,"lat":34.1281709,"capacity":825,"address":"海南市下津町下287番地2"},
{"No":211,"location":"下津保健福祉センター","long":135.1539215,"lat":34.1164534,"capacity":205,"address":"海南市下津町上14番地6"},
{"No":212,"location":"下津防災コミュニティセンター","long":135.1558382,"lat":34.1253934,"capacity":428,"address":"海南市下津町丸田217番地1"},
{"No":213,"location":"下田原集会所","long":135.3155485,"lat":33.9588829,"capacity":30,"address":"日高川町下田原261"},
{"No":214,"location":"下湯川ふるさと村施設","long":135.4499231,"lat":34.0602406,"capacity":50,"address":"有田川町下湯川726-1"},
{"No":215,"location":"下尾井グランド～道の駅","long":135.946375,"lat":33.939281,"capacity":"","address":"北山村下尾井335"},
{"No":216,"location":"下尾井区民会館","long":135.948806,"lat":33.939459,"capacity":"","address":"北山村下尾井189-1"},
{"No":217,"location":"下平川集会所","long":135.236101,"lat":33.935669,"capacity":"","address":"日高川町平川175"},
{"No":218,"location":"下里小学校","long":135.9195675,"lat":33.5755888,"capacity":658,"address":"那智勝浦町下里2862"},
{"No":219,"location":"下里青年研修所","long":135.9229834,"lat":33.5815385,"capacity":58,"address":"那智勝浦町下里707"},
{"No":220,"location":"下里中学校","long":135.9212617,"lat":33.5845636,"capacity":744,"address":"那智勝浦町下里480"},
{"No":221,"location":"下里天満地区津波避難タワー","long":135.9307278,"lat":33.5778989,"capacity":45,"address":"那智勝浦町下里2511"},
{"No":222,"location":"下里保育所","long":135.9199588,"lat":33.5730933,"capacity":80,"address":"那智勝浦町粉白33"},
{"No":223,"location":"加勝寺敷地","long":135.413556,"lat":33.649745,"capacity":"","address":"白浜町十九渕690番"},
{"No":224,"location":"加茂神社周辺","long":135.168724,"lat":34.130947,"capacity":"","address":"海南市下津町下567付近"},
{"No":225,"location":"加茂川小学校","long":135.1859846,"lat":34.124482,"capacity":507,"address":"海南市下津町小松原23番地"},
{"No":226,"location":"河根小学校","long":135.5780212,"lat":34.2747497,"capacity":150,"address":"九度山町河根118"},
{"No":227,"location":"河根中学校","long":135.5784576,"lat":34.2735429,"capacity":280,"address":"九度山町河根77"},
{"No":228,"location":"河根峠集会所","long":135.5771322,"lat":34.2772037,"capacity":9,"address":"九度山町河根513-2"},
{"No":229,"location":"河瀬集会所","long":135.193822,"lat":33.996378,"capacity":30,"address":"広川町河瀬172"},
{"No":230,"location":"河南グラウンド","long":135.4904565,"lat":34.284027,"capacity":"","address":"かつらぎ町東渋田626-3"},
{"No":231,"location":"河南集会所(海南鋼管)","long":135.308626,"lat":34.1586408,"capacity":24,"address":"紀美野町下佐々1817"},
{"No":232,"location":"花王有田研究所グラウンド","long":135.153775,"lat":34.022996,"capacity":"","address":"広川町山本1724-10"},
{"No":233,"location":"花坂小学校体育館","long":135.530482,"lat":34.216255,"capacity":202,"address":"高野町花坂651"},
{"No":234,"location":"介護予防センター","long":135.336496,"lat":33.785848,"capacity":"","address":"みなべ町晩稲148-1"},
{"No":235,"location":"介護老人福祉施設「美山の里」","long":135.382378,"lat":33.957644,"capacity":"","address":"日高川町初湯川213-1"},
{"No":236,"location":"海翁禅寺","long":135.9450624,"lat":33.6293116,"capacity":90,"address":"那智勝浦町勝浦642"},
{"No":237,"location":"海蔵寺","long":135.8945742,"lat":33.5613318,"capacity":233,"address":"那智勝浦町浦神315"},
{"No":238,"location":"海南医療ｾﾝﾀｰ","long":135.2106167,"lat":34.1539723,"capacity":"","address":"海南市日方1522番地１"},
{"No":239,"location":"海南駅前広場","long":135.214347,"lat":34.154391,"capacity":"","address":"海南市名高187-8"},
{"No":240,"location":"海南下津高等学校","long":135.157729,"lat":34.1275967,"capacity":668,"address":"海南市下津町丸田87番地"},
{"No":241,"location":"海南合同宿舎１号棟","long":135.205889,"lat":34.155697,"capacity":"","address":"海南市日方1274-3"},
{"No":242,"location":"海南合同宿舎２号棟","long":135.205862,"lat":34.156041,"capacity":"","address":"海南市日方1274-3"},
{"No":243,"location":"海南市民交流センター","long":135.1508525,"lat":34.1089933,"capacity":469,"address":"海南市下津町下津500番地1"},
{"No":244,"location":"海南中央公園","long":135.234161,"lat":34.159858,"capacity":"","address":"海南市大野中1106付近"},
{"No":245,"location":"海南中学校","long":135.220135,"lat":34.158266,"capacity":840,"address":"海南市日方962番地2"},
{"No":246,"location":"海南保健福祉センター","long":135.2101574,"lat":34.1554216,"capacity":415,"address":"海南市日方1519番地10"},
{"No":247,"location":"皆瀬公民館","long":135.3740287,"lat":33.98503984,"capacity":"","address":"日高川町皆瀬547"},
{"No":248,"location":"外瀬山周辺","long":135.140119,"lat":34.108782,"capacity":"","address":"海南市下津町下津1514付近"},
{"No":249,"location":"柿本神社","long":135.213403,"lat":34.159971,"capacity":"","address":"海南市日方600"},
{"No":250,"location":"各班で決めた一時避難場所１","long":135.088985,"lat":33.89148964,"capacity":"","address":""},
{"No":251,"location":"各班で決めた一時避難場所１０","long":135.0822043,"lat":33.89245593,"capacity":"","address":""},
{"No":252,"location":"各班で決めた一時避難場所１１","long":135.0826496,"lat":33.89398773,"capacity":"","address":""},
{"No":253,"location":"各班で決めた一時避難場所１２","long":135.0781918,"lat":33.89343112,"capacity":"","address":""},
{"No":254,"location":"各班で決めた一時避難場所１３","long":135.0760674,"lat":33.89405452,"capacity":"","address":""},
{"No":255,"location":"各班で決めた一時避難場所１４","long":135.0762284,"lat":33.89085732,"capacity":"","address":""},
{"No":256,"location":"各班で決めた一時避難場所２","long":135.0874051,"lat":33.88869535,"capacity":"","address":""},
{"No":257,"location":"各班で決めた一時避難場所３","long":135.0885504,"lat":33.89063021,"capacity":"","address":""},
{"No":258,"location":"各班で決めた一時避難場所４","long":135.0926381,"lat":33.88988655,"capacity":"","address":""},
{"No":259,"location":"各班で決めた一時避難場所５","long":135.09583,"lat":33.88938781,"capacity":"","address":""},
{"No":260,"location":"各班で決めた一時避難場所６","long":135.0863242,"lat":33.89080833,"capacity":"","address":""},
{"No":261,"location":"各班で決めた一時避難場所７","long":135.0853908,"lat":33.8919572,"capacity":"","address":""},
{"No":262,"location":"各班で決めた一時避難場所８","long":135.0878531,"lat":33.89248265,"capacity":"","address":""},
{"No":263,"location":"各班で決めた一時避難場所９","long":135.0824028,"lat":33.89211751,"capacity":"","address":""},
{"No":264,"location":"覚性寺","long":135.1001405,"lat":33.9693303,"capacity":50,"address":"由良町吹井391"},
{"No":265,"location":"笠松山４－②","long":135.1166667,"lat":33.95711675,"capacity":"","address":"由良町阿戸地内"},
{"No":266,"location":"笠松山４－③","long":135.1177639,"lat":33.95733945,"capacity":"","address":"由良町阿戸地内"},
{"No":267,"location":"笠松集会所","long":135.38699,"lat":33.95574,"capacity":"","address":"日高川町初湯川526-1"},
{"No":268,"location":"笠松小学校","long":135.3859664,"lat":33.9611602,"capacity":400,"address":"日高川町初湯川213-117"},
{"No":269,"location":"笠田ふるさと交流館","long":135.4786396,"lat":34.2882136,"capacity":339,"address":"かつらぎ町笠田東396-3"},
{"No":270,"location":"笠田高等学校","long":135.4782471,"lat":34.2927388,"capacity":1000,"address":"かつらぎ町笠田東825"},
{"No":271,"location":"笠田小学校","long":135.4751819,"lat":34.2878084,"capacity":269,"address":"かつらぎ町笠田東558"},
{"No":272,"location":"笠田東第１自治区コミュニティセンター","long":135.4805584,"lat":34.2911689,"capacity":"","address":"かつらぎ町笠田東30-3"},
{"No":273,"location":"笠田東第１自治区西集会所","long":135.4772634,"lat":34.2890748,"capacity":"","address":"かつらぎ町笠田東666-2"},
{"No":274,"location":"且来招魂山周辺","long":135.229801,"lat":34.171101,"capacity":"","address":"海南市且来840付近"},
{"No":275,"location":"且来八幡神社周辺","long":135.240165,"lat":34.169817,"capacity":"","address":"海南市且来1316"},
{"No":276,"location":"叶神社付近","long":135.2112833,"lat":33.81356667,"capacity":"","address":""},
{"No":277,"location":"㈱キンタロー駐車場周辺","long":135.197929,"lat":34.160582,"capacity":"","address":"海南市船尾317-2"},
{"No":278,"location":"釜滝集会所","long":135.3402628,"lat":34.1714945,"capacity":17,"address":"紀美野町西野246-1"},
{"No":279,"location":"釜中地区集会所","long":135.244371,"lat":34.09399,"capacity":35,"address":"有田川町釜中318"},
{"No":280,"location":"鎌田池公園","long":135.329092,"lat":33.773717,"capacity":"","address":""},
{"No":281,"location":"寒川共同会館","long":135.468822,"lat":33.955842,"capacity":"","address":"日高川町寒川228-1"},
{"No":282,"location":"寒川診療所","long":135.466605,"lat":33.957847,"capacity":"","address":"日高川町寒川297-1"},
{"No":283,"location":"寒川多目的施設","long":135.465575,"lat":33.954136,"capacity":"","address":"日高川町寒川137-1"},
{"No":284,"location":"寒川第一小学校","long":135.4694659,"lat":33.9550058,"capacity":350,"address":"日高川町寒川184"},
{"No":285,"location":"観音寺","long":135.2695028,"lat":33.9581225,"capacity":30,"address":"日高川町船津531"},
{"No":286,"location":"観音谷の高台","long":135.4982311,"lat":33.54743948,"capacity":"","address":""},
{"No":287,"location":"丸山","long":135.245143,"lat":33.80332,"capacity":"","address":""},
{"No":288,"location":"岩ノ谷集会所","long":135.1475826,"lat":33.9495799,"capacity":12,"address":"日高町大字原谷54"},
{"No":289,"location":"岩崎会館","long":135.4153025,"lat":33.687775,"capacity":65,"address":"上富田町岩崎434"},
{"No":290,"location":"岩出市総合保健福祉センター(あいあいセンター)","long":135.2955835,"lat":34.2742222,"capacity":500,"address":"岩出市金池92"},
{"No":291,"location":"岩出市農家高齢者創作館(上岩出地区公民館)","long":135.3215881,"lat":34.2678954,"capacity":150,"address":"岩出市水栖199-3"},
{"No":292,"location":"岩出市農業構造改善総合センター(根来地区公民館)","long":135.3089486,"lat":34.2762115,"capacity":140,"address":"岩出市根来535-2"},
{"No":293,"location":"岩出市民総合体育館","long":135.3104024,"lat":34.2637385,"capacity":1370,"address":"岩出市荊本63-2"},
{"No":294,"location":"岩出市立体育館","long":135.3099148,"lat":34.2564022,"capacity":450,"address":"岩出市西野264"},
{"No":295,"location":"岩出小学校","long":135.3183952,"lat":34.2509012,"capacity":330,"address":"岩出市清水30"},
{"No":296,"location":"岩出第二中学校","long":135.3160903,"lat":34.274216,"capacity":440,"address":"岩出市野上野155"},
{"No":297,"location":"岩出地区コミュニティーセンター","long":135.3199482,"lat":34.2532293,"capacity":30,"address":"岩出市高塚11"},
{"No":298,"location":"岩出地区公民館","long":135.3190208,"lat":34.2555169,"capacity":180,"address":"岩出市清水386-12"},
{"No":299,"location":"岩出地区水田利用再編対策研修指導施設(船山地区公民館)","long":135.3177209,"lat":34.248138,"capacity":80,"address":"岩出市山崎122"},
{"No":300,"location":"岩出中学校","long":135.3072524,"lat":34.2618505,"capacity":520,"address":"岩出市西野65"},
{"No":301,"location":"岩倉公民館","long":135.3198958,"lat":34.0530138,"capacity":50,"address":"有田川町川口1001-1"},
{"No":302,"location":"岩代小学校（校舎）","long":135.281427,"lat":33.781675,"capacity":"","address":"みなべ町西岩代2162"},
{"No":303,"location":"岩田公民館","long":135.4440611,"lat":33.7073024,"capacity":300,"address":"上富田町岩田1777"},
{"No":304,"location":"岩田高齢者憩の家","long":135.4441548,"lat":33.7069871,"capacity":60,"address":"上富田町岩田1775-1"},
{"No":305,"location":"岩田児童館","long":135.4491741,"lat":33.7093429,"capacity":75,"address":"上富田町岩田2843"},
{"No":306,"location":"岩田小学校","long":135.4438803,"lat":33.7062481,"capacity":500,"address":"上富田町岩田1750"},
{"No":307,"location":"岩淵集会所","long":135.2464831,"lat":33.988117,"capacity":30,"address":"広川町下津木1897"},
{"No":308,"location":"寄水クラブ","long":135.943237,"lat":33.592953,"capacity":15,"address":"太地町太地3145-2"},
{"No":309,"location":"気佐藤会館","long":135.3169986,"lat":33.7684719,"capacity":25,"address":"みなべ町気佐藤42"},
{"No":310,"location":"紀伊勝浦郵便局","long":135.941689,"lat":33.62578,"capacity":"","address":"那智勝浦町築地7-10-1"},
{"No":311,"location":"紀州南部ロイヤルホテル前","long":135.301104,"lat":33.768746,"capacity":"","address":"みなべ町山内348"},
{"No":312,"location":"紀泉台グラウンド","long":135.291122,"lat":34.282645,"capacity":4280,"address":"岩出市紀泉台96-2"},
{"No":313,"location":"紀泉台公園１","long":135.289287,"lat":34.280411,"capacity":427,"address":"岩出市紀泉台481"},
{"No":314,"location":"紀泉台公園２","long":135.292221,"lat":34.282911,"capacity":202,"address":"岩出市紀泉台96-38"},
{"No":315,"location":"紀泉台地区公民館","long":135.2906385,"lat":34.2816294,"capacity":160,"address":"岩出市紀泉台428"},
{"No":316,"location":"紀文レストラン駐車場","long":135.145816,"lat":34.108474,"capacity":"","address":"下津町下津705付近"},
{"No":317,"location":"紀北農芸高校","long":135.5292785,"lat":34.3095366,"capacity":688,"address":"かつらぎ町中飯降1781"},
{"No":318,"location":"亀川公民館","long":135.2383755,"lat":34.1718534,"capacity":134,"address":"海南市且来272番地"},
{"No":319,"location":"亀川小学校","long":135.2381105,"lat":34.1713613,"capacity":772,"address":"海南市且来655番地"},
{"No":320,"location":"亀川中学校","long":135.2383921,"lat":34.1704677,"capacity":562,"address":"海南市且来990番地"},
{"No":321,"location":"吉見集会所","long":135.3066736,"lat":34.1368116,"capacity":33,"address":"紀美野町下佐々1752－1"},
{"No":322,"location":"吉子集会所","long":135.26072,"lat":33.94381889,"capacity":"","address":"日高川町大字平川828-2"},
{"No":323,"location":"吉川公民館","long":135.1826646,"lat":34.0490403,"capacity":212,"address":"湯浅町吉川269"},
{"No":324,"location":"吉田団地公園","long":135.276439,"lat":34.268061,"capacity":400,"address":"岩出市吉田92-2"},
{"No":325,"location":"吉野集会所","long":135.329182,"lat":34.1583865,"capacity":49,"address":"紀美野町吉野320-3"},
{"No":326,"location":"久志集会所","long":135.1003987,"lat":33.9276343,"capacity":21,"address":"日高町志賀2722-2"},
{"No":327,"location":"久保小学校","long":135.6092697,"lat":34.25878,"capacity":40,"address":"九度山町北又379"},
{"No":328,"location":"久木会場","long":135.2963613,"lat":33.795577,"capacity":24,"address":"みなべ町東岩代1625-2"},
{"No":329,"location":"久木集会所","long":135.5722887,"lat":34.1507588,"capacity":61,"address":"かつらぎ町花園久木284"},
{"No":330,"location":"久野原小学校体育館","long":135.4522156,"lat":34.0966325,"capacity":160,"address":"有田川町久野原1235"},
{"No":331,"location":"宮ノ前多目的共同利用施設","long":135.252411,"lat":33.824537,"capacity":20,"address":"印南町宮ノ前598"},
{"No":332,"location":"宮ノ谷地区裏山","long":135.149989,"lat":34.118018,"capacity":"","address":"海南市下津町方地内"},
{"No":333,"location":"宮川地区集会所","long":135.4326989,"lat":34.1016353,"capacity":86,"address":"有田川町宮川647"},
{"No":334,"location":"宮本集会所","long":135.502974,"lat":34.270314,"capacity":"","address":"かつらぎ町宮本"},
{"No":335,"location":"旧ＪＡ愛徳支所","long":135.3779681,"lat":33.95853694,"capacity":"","address":"日高川町初湯川35-1"},
{"No":336,"location":"旧あやめ保育所","long":135.288579,"lat":33.961506,"capacity":"","address":"日高川町高津尾121"},
{"No":337,"location":"旧たちばな保育所","long":135.311099,"lat":33.926156,"capacity":"","address":"日高川町三佐252-3"},
{"No":338,"location":"旧ペタンク場","long":135.1130556,"lat":33.96495842,"capacity":"","address":"由良町江ノ駒地内"},
{"No":339,"location":"旧めじろクリニックの屋上","long":135.494528,"lat":33.547663,"capacity":"","address":""},
{"No":340,"location":"旧衣奈中学校","long":135.1105693,"lat":33.984684,"capacity":1000,"address":"由良町衣奈680"},
{"No":341,"location":"旧浦神小学校","long":135.8951424,"lat":33.5588676,"capacity":350,"address":"那智勝浦町浦神1804"},
{"No":342,"location":"旧浦神保育所","long":135.8951424,"lat":33.560375,"capacity":80,"address":"那智勝浦町浦神1805-2"},
{"No":343,"location":"旧下里出張所","long":135.9215253,"lat":33.5763021,"capacity":30,"address":"那智勝浦町下里2797-1"},
{"No":344,"location":"旧花園中学校","long":135.5372523,"lat":34.1376874,"capacity":516,"address":"かつらぎ町花園北寺189"},
{"No":345,"location":"旧街道","long":135.154476,"lat":34.119197,"capacity":"","address":"海南市下津町方867付近"},
{"No":346,"location":"旧玉伝小学校","long":135.509324,"lat":33.653999,"capacity":"","address":"白浜町大42番地"},
{"No":347,"location":"旧君嶋石油前の山","long":135.4953544,"lat":33.54319206,"capacity":"","address":""},
{"No":348,"location":"旧君嶋組事務所の屋上","long":135.494354,"lat":33.546905,"capacity":"","address":""},
{"No":349,"location":"旧佐本小学校","long":135.627483,"lat":33.5911353,"capacity":100,"address":"すさみ町佐本中92"},
{"No":350,"location":"旧佐本中学校","long":135.62696,"lat":33.5901,"capacity":100,"address":"すさみ町佐本中105"},
{"No":351,"location":"旧三谷小学校","long":135.5186647,"lat":34.2910712,"capacity":691,"address":"かつらぎ町三谷1650"},
{"No":352,"location":"旧三尾小学校","long":135.086433,"lat":33.8919377,"capacity":190,"address":"美浜町三尾778"},
{"No":353,"location":"旧四郷小学校グラウンド","long":135.4796832,"lat":34.324026,"capacity":"","address":"かつらぎ町広口1197"},
{"No":354,"location":"旧四邑小学校","long":135.485779,"lat":34.257102,"capacity":604,"address":"かつらぎ町御所8"},
{"No":355,"location":"旧子十浦小学校","long":135.3266957,"lat":33.9738585,"capacity":300,"address":"日高川町三十木155"},
{"No":356,"location":"旧志賀小学校","long":135.4994581,"lat":34.2229129,"capacity":240,"address":"かつらぎ町志賀1214"},
{"No":357,"location":"旧七川小学校","long":135.7100131,"lat":33.6204627,"capacity":484,"address":"古座川町下露441"},
{"No":358,"location":"旧七川小学校グランド","long":135.709948,"lat":33.620425,"capacity":"","address":"古座川町下露441"},
{"No":359,"location":"旧七川小学校西川分校","long":135.709062,"lat":33.637556,"capacity":"","address":"古座川町西川595"},
{"No":360,"location":"旧七川小学校平井分校","long":135.689526,"lat":33.6432305,"capacity":416,"address":"古座川町平井469"},
{"No":361,"location":"旧小川小学校グランド","long":135.762786,"lat":33.588416,"capacity":"","address":"古座川町小川142"},
{"No":362,"location":"旧生石小学校","long":135.322975,"lat":34.092542,"capacity":100,"address":"有田川町生石41"},
{"No":363,"location":"旧川中第一小学校","long":135.315059,"lat":33.9350629,"capacity":300,"address":"日高川町田尻234"},
{"No":364,"location":"旧早月小学校","long":135.3173462,"lat":34.0821145,"capacity":100,"address":"有田川町尾上13-1"},
{"No":365,"location":"旧大熊小学校","long":135.4878061,"lat":33.85639,"capacity":"","address":"田辺市龍神村龍神485"},
{"No":366,"location":"旧大星小学校","long":135.2925341,"lat":33.9282994,"capacity":300,"address":"日高川町坂野川150"},
{"No":367,"location":"旧天野小学校","long":135.5145633,"lat":34.2591611,"capacity":677,"address":"かつらぎ町下天野930"},
{"No":368,"location":"旧田野井小学校敷地","long":135.450165,"lat":33.593718,"capacity":"","address":"白浜町田野井524番地"},
{"No":369,"location":"旧白崎中学校","long":135.0847096,"lat":33.958535,"capacity":500,"address":"由良町神谷213"},
{"No":370,"location":"旧峯口小学校","long":135.3203476,"lat":34.0526253,"capacity":200,"address":"有田川町岩野河5"},
{"No":371,"location":"旧北小学校","long":135.2900489,"lat":34.1126253,"capacity":50,"address":"有田川町瀬井629"},
{"No":372,"location":"旧役場川中支所","long":135.313279,"lat":33.933235,"capacity":"","address":"日高川町田尻117-1"},
{"No":373,"location":"漁村センター","long":135.4924118,"lat":33.5493336,"capacity":60,"address":"すさみ町周参見2050-28"},
{"No":374,"location":"共同墓地","long":135.349194,"lat":33.68897,"capacity":"","address":"白浜町972番"},
{"No":375,"location":"共同墓地（ゲートボール場）","long":135.350083,"lat":33.688171,"capacity":"","address":"白浜町1073番3"},
{"No":376,"location":"境川コミュニティセンター","long":135.385255,"lat":34.0809962,"capacity":20,"address":"有田川町境川211"},
{"No":377,"location":"教育センター","long":135.925048,"lat":33.6115415,"capacity":"","address":"那智勝浦町二河75"},
{"No":378,"location":"教専寺","long":135.1794292,"lat":34.0277964,"capacity":"","address":"広川町広220"},
{"No":379,"location":"教専寺","long":135.1136407,"lat":33.9544924,"capacity":40,"address":"由良町阿戸244"},
{"No":380,"location":"教徳寺周辺","long":135.16536,"lat":34.134815,"capacity":"","address":"海南市下津町塩津82"},
{"No":381,"location":"教法寺周辺","long":135.213646,"lat":34.168536,"capacity":"","address":"海南市岡田698"},
{"No":382,"location":"興国寺","long":135.1255819,"lat":33.977256,"capacity":200,"address":"由良町門前801"},
{"No":383,"location":"極楽寺","long":135.3260677,"lat":33.8061146,"capacity":100,"address":"みなべ町西本庄830"},
{"No":384,"location":"極楽寺","long":135.2921159,"lat":33.9425635,"capacity":30,"address":"日高川町佐井171"},
{"No":385,"location":"極楽寺周辺","long":135.165954,"lat":34.132615,"capacity":"","address":"海南市下津町塩津881"},
{"No":386,"location":"玉彦神社","long":135.388611,"lat":33.667008,"capacity":"","address":"白浜町堅田2747番"},
{"No":387,"location":"筋区民会館","long":135.3225867,"lat":33.7879028,"capacity":50,"address":"みなべ町筋313-1"},
{"No":388,"location":"筋児童会館","long":135.322606,"lat":33.787935,"capacity":"","address":"みなべ町筋313-1"},
{"No":389,"location":"金屋中学校","long":135.2590976,"lat":34.0654427,"capacity":500,"address":"有田川町中井原252"},
{"No":390,"location":"金比羅さん","long":135.501916,"lat":33.558274,"capacity":"","address":""},
{"No":391,"location":"金毘羅","long":135.321987,"lat":33.771108,"capacity":"","address":"みなべ町芝729-1"},
{"No":392,"location":"九度山児童館","long":135.5613007,"lat":34.2917296,"capacity":33,"address":"九度山町九度山1671-1"},
{"No":393,"location":"九度山小学校","long":135.5646867,"lat":34.2872793,"capacity":530,"address":"九度山町九度山1077"},
{"No":394,"location":"九度山西集会所","long":135.5584882,"lat":34.2908441,"capacity":11,"address":"九度山町九度山1473-1"},
{"No":395,"location":"九度山中学校","long":135.5675179,"lat":34.287776,"capacity":650,"address":"九度山町九度山619"},
{"No":396,"location":"九度山町ふるさとセンター","long":135.5620623,"lat":34.28732537,"capacity":"","address":"九度山町九度山1190-1"},
{"No":397,"location":"九度山町中央公民館","long":135.5618192,"lat":34.287671,"capacity":150,"address":"九度山町九度山1194"},
{"No":398,"location":"九度山町民武道館","long":135.5530907,"lat":34.2945754,"capacity":70,"address":"九度山町入郷637-5"},
{"No":399,"location":"九度山東集会所","long":135.5674588,"lat":34.2884597,"capacity":33,"address":"九度山町九度山619-1"},
{"No":400,"location":"九度山文化スポーツセンター","long":135.554096,"lat":34.294364,"capacity":"","address":"九度山町入郷637-6"},
{"No":401,"location":"狗子ノ川青年会館","long":135.9522694,"lat":33.6579675,"capacity":100,"address":"那智勝浦町狗子ノ川341"},
{"No":402,"location":"櫛ケ峯集会所","long":135.3763241,"lat":33.6762156,"capacity":"","address":"白浜町堅田2399番地の469"},
{"No":403,"location":"窪ふるさと館","long":135.464017,"lat":34.28924,"capacity":50,"address":"かつらぎ町窪140"},
{"No":404,"location":"熊岡生活改善センター","long":135.338271,"lat":33.7771829,"capacity":50,"address":"みなべ町熊岡386"},
{"No":405,"location":"熊瀬川旧集荷場","long":135.31785,"lat":33.83781,"capacity":"","address":"みなべ町熊瀬川50-20"},
{"No":406,"location":"熊之町集会所","long":135.181778,"lat":34.026952,"capacity":30,"address":"広川町広66-2"},
{"No":407,"location":"熊野川生活改善センター","long":135.365698,"lat":33.950838,"capacity":"","address":"日高川町熊野川210-2"},
{"No":408,"location":"兄井集会所","long":135.505724,"lat":34.288871,"capacity":"","address":"かつらぎ町兄井"},
{"No":409,"location":"恵友病院","long":135.199274,"lat":34.159093,"capacity":"","address":"海南市船尾264-2"},
{"No":410,"location":"桂瀬集会所","long":135.4012322,"lat":34.1357964,"capacity":25,"address":"紀美野町桂瀬127"},
{"No":411,"location":"渓谷寺","long":135.3263704,"lat":33.9718166,"capacity":30,"address":"日高川町三十木33"},
{"No":412,"location":"荊木公民館","long":135.151509,"lat":33.92334,"capacity":50,"address":"日高町荊木797-2"},
{"No":413,"location":"月野瀬集会所","long":135.7963749,"lat":33.5416442,"capacity":38,"address":"古座川町月野瀬520"},
{"No":414,"location":"堅田上町町内会避難場所２","long":135.386361,"lat":33.684595,"capacity":"","address":"白浜町堅田2613番"},
{"No":415,"location":"堅田西町内会避難場所１","long":135.381979,"lat":33.668142,"capacity":"","address":"白浜町堅田934番"},
{"No":416,"location":"堅田西町内会避難場所２","long":135.383861,"lat":33.668021,"capacity":"","address":"白浜町堅田973番1"},
{"No":417,"location":"堅田東町内会避難場所","long":135.389118,"lat":33.669103,"capacity":"","address":"白浜町堅田464番"},
{"No":418,"location":"権平集会所","long":135.7627903,"lat":33.5883875,"capacity":20,"address":"古座川町小川142"},
{"No":419,"location":"硯地区裏山","long":135.145907,"lat":34.122623,"capacity":"","address":"海南市下津町方地内"},
{"No":420,"location":"県営住宅すさみ団地の四階","long":135.495578,"lat":33.554447,"capacity":"","address":"すさみ町周参見2338-2"},
{"No":421,"location":"県道沿い畑","long":135.222913,"lat":33.836562,"capacity":"","address":""},
{"No":422,"location":"県道上","long":135.0855972,"lat":33.9598426,"capacity":"","address":"由良町神谷地内"},
{"No":423,"location":"県道登り口付近","long":135.1162361,"lat":33.96416107,"capacity":"","address":"由良町江ノ駒地内"},
{"No":424,"location":"県立海南高等学校","long":135.227553,"lat":34.154694,"capacity":1218,"address":"海南市大野中651"},
{"No":425,"location":"県立熊野高校","long":135.4313573,"lat":33.6997264,"capacity":1000,"address":"上富田町朝来670"},
{"No":426,"location":"県立耐久高等学校","long":135.184047,"lat":34.0361898,"capacity":1689,"address":"湯浅町湯浅1985"},
{"No":427,"location":"見好公民館","long":135.477452,"lat":34.279964,"capacity":156,"address":"かつらぎ町東渋田50"},
{"No":428,"location":"見老津小学校","long":135.5801747,"lat":33.5096093,"capacity":100,"address":"すさみ町見老津404"},
{"No":429,"location":"見老津生活改善センター","long":135.5801865,"lat":33.5108622,"capacity":40,"address":"すさみ町見老津295"},
{"No":430,"location":"見老津生活改善センター","long":135.5801865,"lat":33.5108622,"capacity":40,"address":"すさみ町見老津295"},
{"No":431,"location":"元NTT西日本湯浅営業所","long":135.181847,"lat":34.035823,"capacity":"","address":"湯浅町湯浅1533-1"},
{"No":432,"location":"元火葬場周辺","long":135.2178083,"lat":34.16183611,"capacity":"","address":"海南市日方788付近"},
{"No":433,"location":"元西細川小学校体育館","long":135.546903,"lat":34.231634,"capacity":58,"address":"高野町細川198"},
{"No":434,"location":"元村コミュニティーセンター","long":135.235481,"lat":33.800832,"capacity":30,"address":"印南町西ノ地210"},
{"No":435,"location":"元筒香小学校体育館","long":135.6903861,"lat":34.23956111,"capacity":110,"address":"高野町中筒香235"},
{"No":436,"location":"元白藤小学校体育館","long":135.5724294,"lat":34.2435467,"capacity":75,"address":"高野町細川471"},
{"No":437,"location":"玄子集会所","long":135.2092909,"lat":33.923704,"capacity":"","address":"日高川町玄子536-1"},
{"No":438,"location":"個人宅の屋上","long":135.49373,"lat":33.5505,"capacity":"","address":""},
{"No":439,"location":"個人宅の屋上","long":135.493493,"lat":33.550444,"capacity":"","address":""},
{"No":440,"location":"個人宅の屋上","long":135.493381,"lat":33.550591,"capacity":"","address":""},
{"No":441,"location":"個人宅の三階","long":135.493663,"lat":33.550717,"capacity":"","address":""},
{"No":442,"location":"個人宅の三階","long":135.492701,"lat":33.550916,"capacity":"","address":""},
{"No":443,"location":"個人宅の二階","long":135.494894,"lat":33.551678,"capacity":"","address":"すさみ町周参見2321-2"},
{"No":444,"location":"個人宅の二階","long":135.494017,"lat":33.551204,"capacity":"","address":""},
{"No":445,"location":"個人宅の二階","long":135.492117,"lat":33.551083,"capacity":"","address":""},
{"No":446,"location":"個人宅車庫付近","long":135.625227,"lat":33.508181,"capacity":"","address":""},
{"No":447,"location":"個人宅前","long":135.1478755,"lat":33.88474311,"capacity":"","address":""},
{"No":448,"location":"個人宅付近","long":135.609508,"lat":33.50963,"capacity":"","address":""},
{"No":449,"location":"個人宅付近","long":135.606623,"lat":33.511625,"capacity":"","address":""},
{"No":450,"location":"個人宅付近","long":135.605099,"lat":33.512752,"capacity":"","address":""},
{"No":451,"location":"個人宅付近","long":135.603651,"lat":33.513056,"capacity":"","address":""},
{"No":452,"location":"個人宅付近","long":135.625495,"lat":33.503628,"capacity":"","address":""},
{"No":453,"location":"個人宅付近","long":135.496245,"lat":33.557257,"capacity":"","address":""},
{"No":454,"location":"個人宅付近高台","long":135.518264,"lat":33.52941,"capacity":"","address":""},
{"No":455,"location":"個人宅付近高台","long":135.592598,"lat":33.507572,"capacity":"","address":""},
{"No":456,"location":"個人宅付近高台","long":135.588763,"lat":33.509747,"capacity":"","address":""},
{"No":457,"location":"個人宅付近高台","long":135.58914,"lat":33.50571,"capacity":"","address":""},
{"No":458,"location":"個人宅付近国道４２号線","long":135.594355,"lat":33.507711,"capacity":"","address":""},
{"No":459,"location":"個人宅付近国道４２号線","long":135.591354,"lat":33.508511,"capacity":"","address":""},
{"No":460,"location":"個人宅付近国道４２号線","long":135.590342,"lat":33.508293,"capacity":"","address":""},
{"No":461,"location":"個人宅付近山辺","long":135.518502,"lat":33.526873,"capacity":"","address":""},
{"No":462,"location":"個人宅付近裏山","long":135.486347,"lat":33.552093,"capacity":"","address":""},
{"No":463,"location":"個人宅付近裏山","long":135.48726,"lat":33.55218,"capacity":"","address":""},
{"No":464,"location":"個人宅付近裏山","long":135.488581,"lat":33.55144,"capacity":"","address":""},
{"No":465,"location":"個人宅付近裏山","long":135.488998,"lat":33.55117,"capacity":"","address":""},
{"No":466,"location":"個人宅付近裏山","long":135.490094,"lat":33.551351,"capacity":"","address":""},
{"No":467,"location":"個人宅付近裏山","long":135.490634,"lat":33.552198,"capacity":"","address":""},
{"No":468,"location":"個人宅付近裏山","long":135.490145,"lat":33.554701,"capacity":"","address":""},
{"No":469,"location":"個人宅付近裏山","long":135.489843,"lat":33.555055,"capacity":"","address":""},
{"No":470,"location":"個人宅付近裏山","long":135.490058,"lat":33.555681,"capacity":"","address":""},
{"No":471,"location":"個人宅付近裏山","long":135.490291,"lat":33.556141,"capacity":"","address":""},
{"No":472,"location":"個人宅付近裏山","long":135.490414,"lat":33.556883,"capacity":"","address":""},
{"No":473,"location":"個人宅付近裏山","long":135.491412,"lat":33.558577,"capacity":"","address":""},
{"No":474,"location":"個人宅付近裏山","long":135.493788,"lat":33.553839,"capacity":"","address":""},
{"No":475,"location":"個人宅付近裏山","long":135.493558,"lat":33.554067,"capacity":"","address":""},
{"No":476,"location":"個人宅付近裏山","long":135.493955,"lat":33.554751,"capacity":"","address":""},
{"No":477,"location":"個人宅付近裏山","long":135.493983,"lat":33.554952,"capacity":"","address":""},
{"No":478,"location":"個人宅付近裏山","long":135.516224,"lat":33.528907,"capacity":"","address":""},
{"No":479,"location":"個人宅付近裏山","long":135.574036,"lat":33.51681,"capacity":"","address":""},
{"No":480,"location":"個人宅付近裏山","long":135.580074,"lat":33.511991,"capacity":"","address":""},
{"No":481,"location":"個人宅付近裏山","long":135.589978,"lat":33.508234,"capacity":"","address":""},
{"No":482,"location":"個人宅付近裏山","long":135.590495,"lat":33.509149,"capacity":"","address":""},
{"No":483,"location":"個人宅付近裏山","long":135.606529,"lat":33.510735,"capacity":"","address":""},
{"No":484,"location":"個人宅付近裏山","long":135.501415,"lat":33.556752,"capacity":"","address":""},
{"No":485,"location":"個人宅付近裏山","long":135.505549,"lat":33.559119,"capacity":"","address":""},
{"No":486,"location":"個人宅付近裏山","long":135.506212,"lat":33.559604,"capacity":"","address":""},
{"No":487,"location":"個人宅付近裏山","long":135.507914,"lat":33.561479,"capacity":"","address":""},
{"No":488,"location":"個人宅付近裏山","long":135.495621,"lat":33.556973,"capacity":"","address":""},
{"No":489,"location":"個人宅付近裏山","long":135.495557,"lat":33.560999,"capacity":"","address":""},
{"No":490,"location":"個人宅付近裏山","long":135.4962833,"lat":33.55755556,"capacity":"","address":""},
{"No":491,"location":"古屋公民館","long":135.2549994,"lat":33.8212965,"capacity":15,"address":"印南町古屋249-3"},
{"No":492,"location":"古座川町複合センター","long":135.8199383,"lat":33.5266084,"capacity":53,"address":"古座川町高池253"},
{"No":493,"location":"古座中学校（校舎）","long":135.822998,"lat":33.525115,"capacity":"","address":"古座川町高池139"},
{"No":494,"location":"古座中学校グランド","long":135.822998,"lat":33.525115,"capacity":"","address":"古座川町高池139"},
{"No":495,"location":"古澤小学校","long":135.5495293,"lat":34.2671118,"capacity":310,"address":"九度山町中古沢１"},
{"No":496,"location":"戸坂峠周辺","long":135.156528,"lat":34.135536,"capacity":"","address":"海南市下津町丸田1158付近"},
{"No":497,"location":"戸仲会場","long":135.2712882,"lat":33.7972343,"capacity":13,"address":"みなべ町西岩代801-1"},
{"No":498,"location":"戸津井円明寺","long":135.0953057,"lat":33.9878512,"capacity":50,"address":"由良町戸津井203"},
{"No":499,"location":"戸津井老人憩の家","long":135.0950623,"lat":33.9883282,"capacity":40,"address":"由良町戸津井93"},
{"No":500,"location":"雇用促進住宅","long":135.172012,"lat":34.036287,"capacity":"","address":"湯浅町湯浅2917"},
{"No":501,"location":"五郷地区コミュニティセンター","long":135.3856881,"lat":34.0482035,"capacity":45,"address":"有田川町中原465"},
{"No":502,"location":"五郷地区生活改善センター","long":135.3887505,"lat":34.0501828,"capacity":55,"address":"有田川町川合247"},
{"No":503,"location":"五西月小学校","long":135.2898907,"lat":34.0910034,"capacity":100,"address":"有田川町本堂252-2"},
{"No":504,"location":"御幸町内会避難場所１","long":135.349146,"lat":33.688426,"capacity":"","address":"白浜町970番"},
{"No":505,"location":"御幸町内会避難場所２","long":135.348521,"lat":33.687413,"capacity":"","address":"白浜町1104番4地先"},
{"No":506,"location":"御幸町内会避難場所３","long":135.350389,"lat":33.686053,"capacity":"","address":"白浜町1127番"},
{"No":507,"location":"御幸町内会避難場所４","long":135.351444,"lat":33.684392,"capacity":"","address":"白浜町3340番40地先"},
{"No":508,"location":"御幸町内会避難場所５","long":135.35125,"lat":33.685758,"capacity":"","address":"白浜町3340番７"},
{"No":509,"location":"御幸町内会避難場所６","long":135.346611,"lat":33.68588,"capacity":"","address":"白浜町3499番"},
{"No":510,"location":"御坊市中央公民館","long":135.1534463,"lat":33.8907543,"capacity":250,"address":"御坊市薗378-1"},
{"No":511,"location":"御坊小学校","long":135.1549609,"lat":33.8919485,"capacity":1100,"address":"御坊市薗226"},
{"No":512,"location":"御坊中学校","long":135.1590073,"lat":33.8982273,"capacity":850,"address":"御坊市島10"},
{"No":513,"location":"御霊神社境内地","long":135.076917,"lat":33.928763,"capacity":109,"address":"日高町小浦174"},
{"No":514,"location":"御霊地区コミュニティセンター","long":135.2402338,"lat":34.0652993,"capacity":70,"address":"有田川町庄32-4"},
{"No":515,"location":"交通公園","long":135.304299,"lat":34.270601,"capacity":1160,"address":"岩出市堀口41"},
{"No":516,"location":"光照寺","long":135.270986,"lat":33.784741,"capacity":"","address":"みなべ町西岩代495"},
{"No":517,"location":"光専寺","long":135.1199041,"lat":33.9610313,"capacity":40,"address":"由良町里118"},
{"No":518,"location":"光川ＪＲトンネル奥","long":135.224994,"lat":33.811833,"capacity":"","address":""},
{"No":519,"location":"光川コミュティセンター","long":135.2236382,"lat":33.8076687,"capacity":16,"address":"印南町印南3652-2"},
{"No":520,"location":"光川神社下","long":135.223444,"lat":33.804795,"capacity":"","address":""},
{"No":521,"location":"光川町道沿い空き地","long":135.222682,"lat":33.81038,"capacity":"","address":""},
{"No":522,"location":"光台寺","long":135.0992816,"lat":33.9631723,"capacity":50,"address":"由良町吹井701"},
{"No":523,"location":"光明寺","long":135.3398956,"lat":33.7867113,"capacity":100,"address":"みなべ町晩稲1007"},
{"No":524,"location":"光明寺","long":135.1521254,"lat":33.9600409,"capacity":31,"address":"日高町原谷363"},
{"No":525,"location":"光明寺上町道","long":135.24267,"lat":33.795951,"capacity":"","address":""},
{"No":526,"location":"公園地山","long":135.210954,"lat":34.159584,"capacity":"","address":"海南市1307"},
{"No":527,"location":"公民館佐本分館","long":135.62467,"lat":33.5892255,"capacity":50,"address":"すさみ町佐本中228-2"},
{"No":528,"location":"公民館天満分館","long":135.933451,"lat":33.6377899,"capacity":170,"address":"那智勝浦町天満199"},
{"No":529,"location":"口色川集会所","long":135.8606261,"lat":33.6759967,"capacity":75,"address":"那智勝浦町口色川2486"},
{"No":530,"location":"口和深集会センター","long":135.5206672,"lat":33.5296693,"capacity":30,"address":"すさみ町口和深283-2"},
{"No":531,"location":"口和深集会センター","long":135.5206672,"lat":33.5296693,"capacity":30,"address":"すさみ町口和深283-2"},
{"No":532,"location":"幸神社","long":135.165438,"lat":34.040919,"capacity":"","address":""},
{"No":533,"location":"広公民館","long":135.17422,"lat":34.025897,"capacity":50,"address":"広川町広538-1"},
{"No":534,"location":"広小学校","long":135.1761388,"lat":34.023366,"capacity":812,"address":"広川町広631"},
{"No":535,"location":"広瀬集会所","long":135.292927,"lat":33.9694376,"capacity":30,"address":"日高川町高津尾391"},
{"No":536,"location":"広川ビーチ駅前広場","long":135.1638969,"lat":34.0130671,"capacity":"","address":"広川町山本969"},
{"No":537,"location":"広川町B&G海洋センター","long":135.167271,"lat":34.025566,"capacity":395,"address":"広川町広1121-3"},
{"No":538,"location":"広川町なかよし子ども園","long":135.177614,"lat":34.023483,"capacity":496,"address":"広川町広583"},
{"No":539,"location":"広川町なごみ交流センター","long":135.178828,"lat":34.026152,"capacity":263,"address":"広川町広369"},
{"No":540,"location":"広川町若もの広場","long":135.198436,"lat":33.995364,"capacity":"","address":"広川町前田312-1"},
{"No":541,"location":"広川町青少年の家","long":135.247376,"lat":33.994679,"capacity":32,"address":"広川町下津木2088"},
{"No":542,"location":"広川町風力発電所（広川明神山風力発電所西空き地）","long":135.175115,"lat":33.998162,"capacity":"","address":""},
{"No":543,"location":"広川町民会館","long":135.1772308,"lat":34.0235406,"capacity":210,"address":"広川町広572"},
{"No":544,"location":"広川町民多目的広場","long":135.171846,"lat":34.030253,"capacity":"","address":"広川町広1473"},
{"No":545,"location":"広川町民体育館","long":135.173503,"lat":34.031041,"capacity":479,"address":"広川町広1469"},
{"No":546,"location":"広川町役場３階","long":135.1730627,"lat":34.0302394,"capacity":"","address":"広川町広1500"},
{"No":547,"location":"広川町老人憩いの家","long":135.173576,"lat":34.029277,"capacity":90,"address":"広川町広1467"},
{"No":548,"location":"広八幡避難施設","long":135.1753972,"lat":34.0178978,"capacity":150,"address":"広川町上中野206-1"},
{"No":549,"location":"広文化会館","long":135.178656,"lat":34.027036,"capacity":180,"address":"広川町広167"},
{"No":550,"location":"広野区民会館","long":135.3585088,"lat":33.8451844,"capacity":30,"address":"みなべ町広野182-2"},
{"No":551,"location":"広野高齢者活動促進施設","long":135.5218104,"lat":34.3166982,"capacity":60,"address":"かつらぎ町短野210-1"},
{"No":552,"location":"庚申坂付近","long":135.220327,"lat":33.810154,"capacity":"","address":""},
{"No":553,"location":"庚申山","long":135.151298,"lat":34.052928,"capacity":"","address":""},
{"No":554,"location":"江ノ駒老人憩の家","long":135.1152474,"lat":33.9651647,"capacity":30,"address":"由良町江ノ駒220-3"},
{"No":555,"location":"江住駅前","long":135.603578,"lat":33.509683,"capacity":"","address":""},
{"No":556,"location":"江住公民館","long":135.6052504,"lat":33.5101377,"capacity":80,"address":"すさみ町江住1426"},
{"No":557,"location":"江住公民館前高台","long":135.605173,"lat":33.510114,"capacity":"","address":""},
{"No":558,"location":"江住小学校","long":135.6004968,"lat":33.5072763,"capacity":100,"address":"すさみ町江住735"},
{"No":559,"location":"江住中学校","long":135.600238,"lat":33.5059479,"capacity":100,"address":"すさみ町江住812"},
{"No":560,"location":"江須之川生活改善センター","long":135.5908675,"lat":33.5076798,"capacity":40,"address":"すさみ町江住240"},
{"No":561,"location":"江川コミュニティセンター","long":135.227127,"lat":33.889692,"capacity":"","address":"日高川町江川2087-1"},
{"No":562,"location":"江川小学校","long":135.2238908,"lat":33.8893484,"capacity":300,"address":"日高川町江川2149"},
{"No":563,"location":"江津良初期避難場所","long":135.34841,"lat":33.692396,"capacity":"","address":"白浜町259番"},
{"No":564,"location":"港ふれあい公園","long":135.14431,"lat":34.115781,"capacity":"","address":"海南市下津町下津27-3"},
{"No":565,"location":"綱ゲートボール場","long":135.351861,"lat":33.68662,"capacity":"","address":"白浜町1068番1"},
{"No":566,"location":"荒神公園","long":135.294174,"lat":34.282649,"capacity":401,"address":"岩出市紀泉台75"},
{"No":567,"location":"高家集会所(南）","long":135.1412136,"lat":33.9178965,"capacity":33,"address":"日高町高家1031-4"},
{"No":568,"location":"高家集会所(北)","long":135.1368863,"lat":33.9276978,"capacity":50,"address":"日高町高家469-1"},
{"No":569,"location":"高家住民公園","long":135.137778,"lat":33.91789,"capacity":424,"address":"日高町高家913-2"},
{"No":570,"location":"高垣集会所上墓地","long":135.250014,"lat":33.811076,"capacity":"","address":""},
{"No":571,"location":"高芝区民会館","long":135.9205679,"lat":33.5756479,"capacity":32,"address":"那智勝浦町下里2952-1"},
{"No":572,"location":"高城公民館","long":135.3556716,"lat":33.8468251,"capacity":200,"address":"みなべ町広野9"},
{"No":573,"location":"高城高齢者センター","long":135.3405665,"lat":33.8517727,"capacity":50,"address":"みなべ町高野1404"},
{"No":574,"location":"高城小学校(体育館)","long":135.35077,"lat":33.85321,"capacity":500,"address":"みなべ町土井431"},
{"No":575,"location":"高城中学校(体育館)","long":135.355914,"lat":33.849119,"capacity":1000,"address":"みなべ町滝81"},
{"No":576,"location":"高城保育所","long":135.356248,"lat":33.846675,"capacity":"","address":"みなべ町広野9"},
{"No":577,"location":"高台","long":135.1033889,"lat":33.96651133,"capacity":"","address":"由良町吹井地内"},
{"No":578,"location":"高台（ゲートボール場）","long":135.0959445,"lat":33.98810794,"capacity":"","address":"由良町戸津井地内"},
{"No":579,"location":"高台（バス回転地）","long":135.0945417,"lat":33.9875084,"capacity":"","address":"由良町戸津井地内"},
{"No":580,"location":"高台（衣奈八幡神社登り口付近）","long":135.1104028,"lat":33.98653606,"capacity":"","address":"由良町衣奈地内"},
{"No":581,"location":"高台（岸の上）","long":135.0916111,"lat":33.98134167,"capacity":"","address":"由良町小引地内"},
{"No":582,"location":"高台（教専寺境内）","long":135.1136528,"lat":33.95437563,"capacity":"","address":"由良町阿戸地内"},
{"No":583,"location":"高台（県道上待機所付近①）","long":135.1277084,"lat":33.99761107,"capacity":"","address":"由良町衣奈地内"},
{"No":584,"location":"高台(県道上待機所付近②）","long":135.127375,"lat":33.99517652,"capacity":"","address":"由良町衣奈地内"},
{"No":585,"location":"高台（国道のり面）","long":135.1240139,"lat":33.95957103,"capacity":"","address":"由良町里地内"},
{"No":586,"location":"高台（国道合流部付近）","long":135.1240694,"lat":33.96043449,"capacity":"","address":"由良町里地内"},
{"No":587,"location":"高台（黒島旅館裏田畑）","long":135.1143056,"lat":33.98987626,"capacity":"","address":"由良町衣奈地内"},
{"No":588,"location":"高台（小引坂）","long":135.1048819,"lat":33.98784181,"capacity":"","address":"由良町衣奈地内"},
{"No":589,"location":"高台（小由良坂付近）","long":135.1140556,"lat":33.96138052,"capacity":"","address":"由良町網代地内"},
{"No":590,"location":"高台（西川原西高台）","long":135.123875,"lat":33.99770583,"capacity":"","address":"由良町衣奈地内"},
{"No":591,"location":"高台（田畑）","long":135.1097083,"lat":33.95426411,"capacity":"","address":"由良町阿戸地内"},
{"No":592,"location":"高台（田畑）","long":135.0930556,"lat":33.98277922,"capacity":"","address":"由良町小引地内"},
{"No":593,"location":"高台（配水池登り口付近）","long":135.1031667,"lat":33.99092836,"capacity":"","address":"由良町衣奈地内"},
{"No":594,"location":"高台（別荘広場付近）","long":135.0923611,"lat":33.98356633,"capacity":"","address":"由良町小引地内"},
{"No":595,"location":"高台（防災倉庫付近）","long":135.0930139,"lat":33.98805088,"capacity":"","address":"由良町戸津井地内"},
{"No":596,"location":"高台①","long":135.1283889,"lat":33.96439133,"capacity":"","address":"由良町里地内"},
{"No":597,"location":"高台①","long":135.0823195,"lat":33.97083427,"capacity":"","address":"由良町大引地内"},
{"No":598,"location":"高台①（ポンプ場付近畑）","long":135.0990139,"lat":33.96669376,"capacity":"","address":"由良町吹井地内"},
{"No":599,"location":"高台②","long":135.1259444,"lat":33.96297602,"capacity":"","address":"由良町里地内"},
{"No":600,"location":"高台②","long":135.0995417,"lat":33.97133343,"capacity":"","address":"由良町吹井地内"},
{"No":601,"location":"高台②","long":135.0842778,"lat":33.97084022,"capacity":"","address":"由良町大引地内"},
{"No":602,"location":"高台③","long":135.1262361,"lat":33.96004971,"capacity":"","address":"由良町里地内"},
{"No":603,"location":"高台③","long":135.0872222,"lat":33.96612699,"capacity":"","address":"由良町大引地内"},
{"No":604,"location":"高津気区民会館","long":135.9514937,"lat":33.6709481,"capacity":44,"address":"那智勝浦町高津気269"},
{"No":605,"location":"高津尾小学校","long":135.2910692,"lat":33.9607292,"capacity":300,"address":"日高川町高津尾264"},
{"No":606,"location":"高田児童館","long":135.44936,"lat":34.282619,"capacity":90,"address":"かつらぎ町高田67-2"},
{"No":607,"location":"高畑集会所","long":135.2381002,"lat":33.8902645,"capacity":"","address":"日高川町江川1740"},
{"No":608,"location":"高野区民会館","long":135.3401271,"lat":33.8561277,"capacity":40,"address":"みなべ町高野526-1"},
{"No":609,"location":"高野山小学校体育館","long":135.584617,"lat":34.210603,"capacity":235,"address":"高野町高野山376"},
{"No":610,"location":"高野山中学校体育館","long":135.589763,"lat":34.221515,"capacity":355,"address":"高野町高野山26-2"},
{"No":611,"location":"高野集会所","long":135.460508,"lat":33.954249,"capacity":"","address":"日高川町寒川61-2"},
{"No":612,"location":"高野町中央公民館･町民体育館","long":135.5941263,"lat":34.2108815,"capacity":235,"address":"高野町高野山486"},
{"No":613,"location":"高齢者等活動生活支援促進施設","long":135.268386,"lat":33.957619,"capacity":"","address":"日高川町船津554-1"},
{"No":614,"location":"国吉多目的集会所","long":135.4158582,"lat":34.1400643,"capacity":30,"address":"紀美野町田64"},
{"No":615,"location":"国主神社周辺","long":135.23998,"lat":34.177552,"capacity":"","address":"海南市多田714"},
{"No":616,"location":"国道上","long":135.1232361,"lat":33.96165919,"capacity":"","address":"由良町里地内"},
{"No":617,"location":"国道上（元オートスナック付近）","long":135.1227639,"lat":33.95803764,"capacity":"","address":"由良町里地内"},
{"No":618,"location":"国民宿舎紀州路みなべ","long":135.324055,"lat":33.751598,"capacity":"","address":"みなべ町埴田1540"},
{"No":619,"location":"国民宿舎裏山","long":135.4943633,"lat":33.5432949,"capacity":"","address":""},
{"No":620,"location":"国木原集会所","long":135.3414222,"lat":34.1852704,"capacity":25,"address":"紀美野町国木原1"},
{"No":621,"location":"黒江公民館","long":135.2041894,"lat":34.1612576,"capacity":145,"address":"海南市黒江693番地4"},
{"No":622,"location":"黒江小学校","long":135.1993513,"lat":34.1582843,"capacity":903,"address":"海南市船尾236-4"},
{"No":623,"location":"黒江防災コミュニティセンター","long":135.2036972,"lat":34.1607,"capacity":153,"address":"海南市船尾222番地13"},
{"No":624,"location":"黒潮フルーツ楽園他付近高台","long":135.149473,"lat":34.014059,"capacity":"","address":"広川町西広1307"},
{"No":625,"location":"黒田地区高台","long":135.159543,"lat":34.122446,"capacity":"","address":"海南市下津町黒田186付近"},
{"No":626,"location":"今池周辺","long":135.128752,"lat":33.902947,"capacity":"","address":""},
{"No":627,"location":"根来小学校","long":135.3093501,"lat":34.2779732,"capacity":320,"address":"岩出市根来479"},
{"No":628,"location":"根来北集会所","long":135.3073002,"lat":34.2817933,"capacity":20,"address":"岩出市根来1162"},
{"No":629,"location":"佐井ゴルフ記念館","long":135.287786,"lat":33.936652,"capacity":"","address":"日高川町佐井597"},
{"No":630,"location":"佐井集会所","long":135.2925038,"lat":33.9410742,"capacity":30,"address":"日高川町佐井212-1"},
{"No":631,"location":"佐野住民会館","long":135.4879896,"lat":34.2954007,"capacity":218,"address":"かつらぎ町佐野551"},
{"No":632,"location":"沙攫神社","long":135.096972,"lat":33.947322,"capacity":30,"address":"日高町志賀4001"},
{"No":633,"location":"才野区避難場所１","long":135.38775,"lat":33.660041,"capacity":"","address":"白浜町才野1757番1地先"},
{"No":634,"location":"才野区避難場所２","long":135.383299,"lat":33.653709,"capacity":"","address":"白浜町才野1692番"},
{"No":635,"location":"済生会前オレンジタウン","long":135.192644,"lat":34.045359,"capacity":"","address":""},
{"No":636,"location":"細野町内会避難場所１","long":135.380917,"lat":33.682986,"capacity":"","address":"白浜町堅田2577番1"},
{"No":637,"location":"細野町内会避難場所２","long":135.378882,"lat":33.681447,"capacity":"","address":"白浜町堅田2525番1"},
{"No":638,"location":"細野町内会避難場所３","long":135.377549,"lat":33.677425,"capacity":"","address":"白浜町堅田2399番9地先"},
{"No":639,"location":"細野町内会避難場所４","long":135.373125,"lat":33.684242,"capacity":"","address":"白浜町堅田2260番"},
{"No":640,"location":"財部会館","long":135.1528156,"lat":33.9015079,"capacity":110,"address":"御坊市湯川町財部485"},
{"No":641,"location":"坂野川集会所","long":135.2912218,"lat":33.9294779,"capacity":30,"address":"日高川町坂野川194-1"},
{"No":642,"location":"阪田町内会初期避難場所","long":135.353875,"lat":33.69099,"capacity":"","address":"白浜町3715番54"},
{"No":643,"location":"堺市立日高少年自然の家（食堂棟）","long":135.0919136,"lat":33.9432882,"capacity":242,"address":"日高町志賀3798-1"},
{"No":644,"location":"堺児童会館","long":135.3305495,"lat":33.7452121,"capacity":9,"address":"みなべ町堺364-1"},
{"No":645,"location":"堺地区農免道路周辺","long":135.332093,"lat":33.746652,"capacity":"","address":"みなべ町堺418-11先"},
{"No":646,"location":"崎山漁村センター","long":135.236619,"lat":33.788045,"capacity":18,"address":"印南町島田1812-2"},
{"No":647,"location":"桜台地区公民館","long":135.3140556,"lat":34.2782212,"capacity":"","address":"岩出市桜台494"},
{"No":648,"location":"三ツ橋町内会避難場所１","long":135.385396,"lat":33.677442,"capacity":"","address":"白浜町堅田2588番1"},
{"No":649,"location":"三ツ橋町内会避難場所２","long":135.385354,"lat":33.678056,"capacity":"","address":"白浜町堅田2584番2"},
{"No":650,"location":"三郷八幡神社周辺","long":135.156456,"lat":34.122978,"capacity":"","address":"海南市下津町丁160付近"},
{"No":651,"location":"三佐集会所","long":135.3130084,"lat":33.9269763,"capacity":30,"address":"日高川町三佐296-2"},
{"No":652,"location":"三十井川集会所","long":135.324116,"lat":33.987635,"capacity":"","address":"日高川町三十井川84-1"},
{"No":653,"location":"三助谷","long":135.49094,"lat":33.550349,"capacity":"","address":""},
{"No":654,"location":"三瀬川コミュニティセンター","long":135.3849211,"lat":34.0628686,"capacity":20,"address":"有田川町三瀬川241"},
{"No":655,"location":"三瀬川消防詰所","long":135.386887,"lat":34.064028,"capacity":5,"address":"有田川町三瀬川"},
{"No":656,"location":"三津川公民館","long":135.2547351,"lat":33.9020971,"capacity":50,"address":"日高川町山野3203-6"},
{"No":657,"location":"三田活性化センター","long":135.4150386,"lat":34.0945853,"capacity":21,"address":"有田川町三田461-2"},
{"No":658,"location":"三尾川区民センター","long":135.3721874,"lat":34.1388874,"capacity":25,"address":"紀美野町三尾川429"},
{"No":659,"location":"三尾川集落センター","long":135.134276,"lat":33.9967114,"capacity":60,"address":"由良町三尾川294"},
{"No":660,"location":"三尾川小学校","long":135.6865767,"lat":33.5579331,"capacity":563,"address":"古座川町三尾川935"},
{"No":661,"location":"三尾川小学校グランド","long":135.686538,"lat":33.557889,"capacity":"","address":"古座川町三尾川935"},
{"No":662,"location":"三尾川生活改善センター","long":135.6864926,"lat":33.5572936,"capacity":52,"address":"古座川町三尾川943"},
{"No":663,"location":"三尾分館","long":135.0836561,"lat":33.890984,"capacity":45,"address":"美浜町三尾841"},
{"No":664,"location":"三菱保養所","long":135.407038,"lat":33.704259,"capacity":"","address":"上富田町南紀ノ台1-1"},
{"No":665,"location":"三百瀬公民館","long":135.2433456,"lat":33.9401545,"capacity":100,"address":"日高川町三百瀬477-2"},
{"No":666,"location":"三百瀬小学校","long":135.2481613,"lat":33.9415316,"capacity":300,"address":"日高川町三百瀬884"},
{"No":667,"location":"三宝寺","long":135.438671,"lat":33.703082,"capacity":50,"address":"上富田町岩田375"},
{"No":668,"location":"三宝寺周辺","long":135.14154,"lat":33.906862,"capacity":"","address":""},
{"No":669,"location":"山宮の浦公園","long":135.281696,"lat":34.276537,"capacity":204,"address":"岩出市山492-33"},
{"No":670,"location":"山口研修センター","long":135.224084,"lat":33.8323633,"capacity":21,"address":"印南町山口636-1"},
{"No":671,"location":"山口釣具店の三階","long":135.494954,"lat":33.545403,"capacity":"","address":""},
{"No":672,"location":"山向寺","long":135.294123,"lat":33.9281378,"capacity":30,"address":"日高川町坂野川255"},
{"No":673,"location":"山崎児童館","long":135.534658,"lat":34.292488,"capacity":69,"address":"かつらぎ町山崎184"},
{"No":674,"location":"山崎小学校","long":135.2915781,"lat":34.2676953,"capacity":351,"address":"岩出市中黒100"},
{"No":675,"location":"山崎地区公民館","long":135.2918153,"lat":34.2670743,"capacity":160,"address":"岩出市中黒52-2"},
{"No":676,"location":"山崎北小学校","long":135.2915917,"lat":34.2764571,"capacity":313,"address":"岩出市西安上70"},
{"No":677,"location":"山手集会所","long":135.7550136,"lat":33.5777456,"capacity":32,"address":"古座川町山手315"},
{"No":678,"location":"山上通り(フジ住宅保養所前町道）","long":135.346146,"lat":33.683715,"capacity":"","address":"白浜町1369番8地先"},
{"No":679,"location":"山上通り(旅館万亭前町道）","long":135.3485,"lat":33.683895,"capacity":"","address":"白浜町1315番2地先"},
{"No":680,"location":"山中２号線","long":135.9342563,"lat":33.58874034,"capacity":"","address":"太地町森浦"},
{"No":681,"location":"山田公民館","long":135.206513,"lat":34.0284985,"capacity":208,"address":"湯浅町山田1334-2"},
{"No":682,"location":"山田小学校体育館","long":135.2034486,"lat":34.0277846,"capacity":324,"address":"湯浅町山田1920-1"},
{"No":683,"location":"山本区集会場","long":135.167455,"lat":34.014027,"capacity":30,"address":"広川町山本510-6"},
{"No":684,"location":"山野会館","long":135.2477431,"lat":33.891944,"capacity":"","address":"日高川町山野339-1"},
{"No":685,"location":"山野小学校","long":135.2475209,"lat":33.8923464,"capacity":300,"address":"日高川町山野538"},
{"No":686,"location":"産湯集会所","long":135.0842557,"lat":33.9121371,"capacity":44,"address":"日高町産湯163"},
{"No":687,"location":"四郷集会所","long":135.412886,"lat":34.1802805,"capacity":11,"address":"紀美野町四郷134"},
{"No":688,"location":"姉子集会所","long":135.3256139,"lat":33.9748663,"capacity":30,"address":"日高川町姉子136-5"},
{"No":689,"location":"市ノ瀬コミュニティ消防センター","long":135.4630871,"lat":33.7130291,"capacity":50,"address":"上富田町市ノ瀬619-2"},
{"No":690,"location":"市ノ瀬高齢者憩の家","long":135.4626124,"lat":33.7153269,"capacity":100,"address":"上富田町市ノ瀬2504-23"},
{"No":691,"location":"市ノ瀬小学校","long":135.462221,"lat":33.7126631,"capacity":250,"address":"上富田町市ノ瀬604"},
{"No":692,"location":"市ノ瀬体育館","long":135.4613403,"lat":33.7154461,"capacity":300,"address":"上富田町市ノ瀬2504-35"},
{"No":693,"location":"市井川区民会館","long":135.3484486,"lat":33.8629067,"capacity":30,"address":"みなべ町市井川485-1"},
{"No":694,"location":"市屋お寺","long":135.9095257,"lat":33.5904737,"capacity":17,"address":"那智勝浦町市屋902"},
{"No":695,"location":"市屋会館","long":135.9129722,"lat":33.5903528,"capacity":73,"address":"那智勝浦町市屋538-1"},
{"No":696,"location":"市江区民会館","long":135.405783,"lat":33.590135,"capacity":"","address":"白浜町日置1446番地"},
{"No":697,"location":"市川集会所","long":135.2543513,"lat":33.8781757,"capacity":40,"address":"日高川町山野1103"},
{"No":698,"location":"市道硯楠戸線高台","long":135.144571,"lat":34.118768,"capacity":"","address":"海南市下津町方地内"},
{"No":699,"location":"市道赤松楠戸線高台","long":135.149018,"lat":34.110752,"capacity":"","address":"海南市下津町下津341付近"},
{"No":700,"location":"市民会館","long":135.2096364,"lat":34.1559106,"capacity":243,"address":"海南市日方1271番地108"},
{"No":701,"location":"市野々小学校","long":135.9104151,"lat":33.6632932,"capacity":637,"address":"那智勝浦町市野々2604"},
{"No":702,"location":"市立学文路中学校","long":135.5968777,"lat":34.3069124,"capacity":508,"address":"橋本市清水363"},
{"No":703,"location":"市立橋本中学校","long":135.6045484,"lat":34.3121583,"capacity":459,"address":"橋本市市脇5-3-8"},
{"No":704,"location":"志賀小学校","long":135.1141342,"lat":33.9231779,"capacity":283,"address":"日高町志賀1800"},
{"No":705,"location":"志賀小学校グラウンド","long":135.1141342,"lat":33.9231779,"capacity":1090,"address":"日高町志賀1800"},
{"No":706,"location":"志賀保育所","long":135.1101276,"lat":33.9226819,"capacity":137,"address":"日高町志賀1781"},
{"No":707,"location":"志賀保育所グラウンド","long":135.1101276,"lat":33.9226819,"capacity":272,"address":"日高町志賀1781"},
{"No":708,"location":"志賀野体育館","long":135.3532621,"lat":34.1685189,"capacity":102,"address":"紀美野町西野11-1"},
{"No":709,"location":"志賀野地区公民館","long":135.3523139,"lat":34.1683726,"capacity":66,"address":"紀美野町西野22-1"},
{"No":710,"location":"志原区避難場所","long":135.431472,"lat":33.571736,"capacity":"","address":"白浜町日置2039番"},
{"No":711,"location":"施無畏寺","long":135.16188,"lat":34.046663,"capacity":"","address":"湯浅町栖原1465"},
{"No":712,"location":"糸川地区多目的集会所","long":135.153701,"lat":34.014638,"capacity":50,"address":"有田川町糸川76-1"},
{"No":713,"location":"寺尾集会所","long":135.495775,"lat":34.284698,"capacity":"","address":"かつらぎ町寺尾"},
{"No":714,"location":"寺杣集会所","long":135.21421,"lat":33.979425,"capacity":15,"address":"広川町下津木743"},
{"No":715,"location":"慈尊院児童館","long":135.5487243,"lat":34.296126,"capacity":34,"address":"九度山町慈尊院112-5"},
{"No":716,"location":"自然体験世代交流センター","long":135.3836019,"lat":34.1420939,"capacity":69,"address":"紀美野町鎌滝636"},
{"No":717,"location":"七色区民会館","long":135.9889338,"lat":33.9694987,"capacity":25,"address":"北山村七色179"},
{"No":718,"location":"七川総合集会所","long":135.6974514,"lat":33.593489,"capacity":18,"address":"古座川町佐田627"},
{"No":719,"location":"室山古墳周辺","long":135.206388,"lat":34.172455,"capacity":"","address":"海南市黒江地内"},
{"No":720,"location":"室山地区高台","long":135.205548,"lat":34.169155,"capacity":"","address":"海南市黒江127付近"},
{"No":721,"location":"室山配水池周辺","long":135.207246,"lat":34.165762,"capacity":"","address":"海南市黒江地内"},
{"No":722,"location":"室山保育所","long":135.2074294,"lat":34.1686702,"capacity":131,"address":"海南市黒江223番地"},
{"No":723,"location":"芝会館","long":135.322507,"lat":33.770999,"capacity":"","address":"みなべ町芝721-10"},
{"No":724,"location":"芝崎会館","long":135.32632,"lat":33.768266,"capacity":"","address":"みなべ町芝261"},
{"No":725,"location":"芝崎集会所","long":135.3094792,"lat":34.1697717,"capacity":17,"address":"紀美野町動木363－1"},
{"No":726,"location":"社会福祉センター","long":135.323451,"lat":33.766047,"capacity":"","address":"みなべ町芝447-2"},
{"No":727,"location":"蛇尾集会所","long":135.2182968,"lat":33.934774,"capacity":"","address":"日高川町蛇尾438-17"},
{"No":728,"location":"若野コミュニティセンター","long":135.2010302,"lat":33.8974655,"capacity":"","address":"日高川町若野282"},
{"No":729,"location":"若葉台公園","long":135.319242,"lat":34.279427,"capacity":646,"address":"岩出市今中170-8"},
{"No":730,"location":"受領会場","long":135.3549722,"lat":33.8138908,"capacity":30,"address":"みなべ町東本庄1708"},
{"No":731,"location":"寿福寺","long":135.6874766,"lat":33.5319632,"capacity":30,"address":"古座川町南平294"},
{"No":732,"location":"周参見小学校","long":135.4977173,"lat":33.5512514,"capacity":120,"address":"すさみ町周参見4027"},
{"No":733,"location":"周参見中学校","long":135.4999931,"lat":33.5546991,"capacity":250,"address":"すさみ町周参見3692"},
{"No":734,"location":"周参見中学校裏山","long":135.500884,"lat":33.554643,"capacity":"","address":""},
{"No":735,"location":"修理川小学校","long":135.2911705,"lat":34.0327081,"capacity":100,"address":"有田川町修理川694-1"},
{"No":736,"location":"秋葉山敷地","long":135.451738,"lat":33.572687,"capacity":"","address":"白浜町大古778番2"},
{"No":737,"location":"住吉神社社務所","long":135.6989345,"lat":33.5500038,"capacity":16,"address":"古座川町蔵土450"},
{"No":738,"location":"住山マンション東","long":135.172976,"lat":34.035215,"capacity":"","address":"湯浅町湯浅2800"},
{"No":739,"location":"住民センター","long":135.2736727,"lat":34.1604143,"capacity":213,"address":"海南市沖野々443番地5"},
{"No":740,"location":"住民交流センター","long":135.469576,"lat":33.578484,"capacity":"","address":"白浜町安宅464番地の1"},
{"No":741,"location":"住民交流センター敷地","long":135.469576,"lat":33.578484,"capacity":"","address":"白浜町安宅464番地の1"},
{"No":742,"location":"住民福祉会館","long":135.4979168,"lat":33.5522515,"capacity":60,"address":"すさみ町周参見3871-3"},
{"No":743,"location":"十輪寺","long":135.3405596,"lat":33.8458272,"capacity":100,"address":"みなべ町滝1214"},
{"No":744,"location":"渋田小学校","long":135.4757693,"lat":34.2771148,"capacity":187,"address":"かつらぎ町東渋田152"},
{"No":745,"location":"重山登り口","long":135.0889722,"lat":33.95962651,"capacity":"","address":"由良町神谷地内"},
{"No":746,"location":"春日神社","long":135.603607,"lat":33.511055,"capacity":"","address":""},
{"No":747,"location":"春日神社周辺","long":135.226792,"lat":34.156354,"capacity":"","address":"海南市大野中340"},
{"No":748,"location":"潤野集会所","long":135.7631611,"lat":33.53668889,"capacity":40,"address":"古座川町潤野549"},
{"No":749,"location":"順心寺","long":135.9439754,"lat":33.5914953,"capacity":20,"address":"太地町太地3186"},
{"No":750,"location":"初湯川集会所","long":135.407852,"lat":33.9732604,"capacity":10,"address":"日高川町初湯川1170-1"},
{"No":751,"location":"女性若者等交流活動支援施設","long":135.265283,"lat":33.944481,"capacity":"","address":"日高川町船津1110-1"},
{"No":752,"location":"女良古墳周辺","long":135.146272,"lat":34.130846,"capacity":"","address":"海南市下津町"},
{"No":753,"location":"勝浦海産物センター","long":135.942175,"lat":33.628158,"capacity":"","address":"那智勝浦町築地5-1-1"},
{"No":754,"location":"勝浦小学校","long":135.9467548,"lat":33.6314173,"capacity":2014,"address":"那智勝浦町勝浦816"},
{"No":755,"location":"勝浦保育所","long":135.9413296,"lat":33.6327675,"capacity":118,"address":"那智勝浦町天満796-3"},
{"No":756,"location":"勝谷集会所","long":135.4356728,"lat":34.1710233,"capacity":19,"address":"紀美野町勝谷181‐2"},
{"No":757,"location":"小引コミュニティセンター","long":135.0914623,"lat":33.9819704,"capacity":50,"address":"由良町小引468"},
{"No":758,"location":"小引円明寺","long":135.0918518,"lat":33.9818627,"capacity":70,"address":"由良町小引450"},
{"No":759,"location":"小引老人憩の家","long":135.0915733,"lat":33.9818917,"capacity":30,"address":"由良町小引450-2"},
{"No":760,"location":"小浦地区公民館","long":135.0772098,"lat":33.9285569,"capacity":85,"address":"日高町小浦174"},
{"No":761,"location":"小河内集会所","long":135.57902,"lat":33.565836,"capacity":40,"address":"すさみ町小河内913"},
{"No":762,"location":"小釜本集会所","long":135.320392,"lat":33.93772,"capacity":"","address":"日高川町小釜本295-1"},
{"No":763,"location":"小熊公園","long":135.1946881,"lat":33.90764194,"capacity":"","address":"日高川町小熊6083-1"},
{"No":764,"location":"小熊児童館","long":135.189649,"lat":33.907885,"capacity":100,"address":"日高川町小熊3396-2"},
{"No":765,"location":"小坂山","long":135.9424777,"lat":33.6311088,"capacity":"","address":"那智勝浦町勝浦47"},
{"No":766,"location":"小坂青年会場（大恩寺）","long":135.0923937,"lat":33.9191065,"capacity":31,"address":"日高町小坂262"},
{"No":767,"location":"小阪多目的集会所","long":135.8700981,"lat":33.6587537,"capacity":47,"address":"那智勝浦町小阪2338"},
{"No":768,"location":"小山地蔵付近","long":135.1279306,"lat":33.9659388,"capacity":"","address":"由良町里地内"},
{"No":769,"location":"小匠クラブ","long":135.8415257,"lat":33.6030184,"capacity":23,"address":"那智勝浦町小匠721-1"},
{"No":770,"location":"小松集会所","long":135.9323242,"lat":33.9177813,"capacity":15,"address":"北山村小松17"},
{"No":771,"location":"小川小学校","long":135.2678955,"lat":34.0726589,"capacity":100,"address":"有田川町小川610"},
{"No":772,"location":"小川小学校体育館","long":135.3240521,"lat":34.1319475,"capacity":123,"address":"紀美野町中田4"},
{"No":773,"location":"小川総合センター","long":135.7667988,"lat":33.6036897,"capacity":76,"address":"古座川町小川774-1"},
{"No":774,"location":"小川地区公民館","long":135.3242265,"lat":34.1314437,"capacity":42,"address":"紀美野町中田23"},
{"No":775,"location":"小倉酒店付近裏山","long":135.605628,"lat":33.511509,"capacity":"","address":""},
{"No":776,"location":"小池集会所","long":135.1283409,"lat":33.9069628,"capacity":24,"address":"日高町小池450"},
{"No":777,"location":"小中住民公園","long":135.133417,"lat":33.924769,"capacity":969,"address":"日高町小中869-1"},
{"No":778,"location":"小中地蔵周辺","long":135.221178,"lat":34.149251,"capacity":"","address":"海南市鳥居518付近"},
{"No":779,"location":"小津茂集会所","long":135.2642101,"lat":33.9544995,"capacity":30,"address":"日高川町船津659-1"},
{"No":780,"location":"小島谷農道周辺","long":135.15118,"lat":34.115391,"capacity":"","address":"海南市下津町方地内"},
{"No":781,"location":"小峠活性化センター","long":135.423307,"lat":34.092116,"capacity":9,"address":"有田川町清水127-3"},
{"No":782,"location":"小泊トンネル前","long":135.48499,"lat":33.551031,"capacity":"","address":""},
{"No":783,"location":"小泊生活改善センター","long":135.4883131,"lat":33.5507464,"capacity":50,"address":"すさみ町周参見4596"},
{"No":784,"location":"小泊地蔵堂","long":135.487947,"lat":33.551673,"capacity":"","address":""},
{"No":785,"location":"小泊地蔵堂付近裏山","long":135.488354,"lat":33.551673,"capacity":"","address":""},
{"No":786,"location":"小畑集会所","long":135.2938702,"lat":34.1633792,"capacity":40,"address":"紀美野町小畑107"},
{"No":787,"location":"小薮川集会所","long":135.4666689,"lat":33.95830194,"capacity":"","address":"日高川町寒川2230"},
{"No":788,"location":"庄お寺跡","long":135.9007738,"lat":33.5847739,"capacity":"","address":"那智勝浦町庄816付近"},
{"No":789,"location":"招魂山ちびっ子広場周辺","long":135.203107,"lat":34.16256,"capacity":"","address":"海南市船尾19-3"},
{"No":790,"location":"松の実公園","long":135.1471862,"lat":33.88646208,"capacity":"","address":""},
{"No":791,"location":"松の前集会所","long":135.678726,"lat":33.5692982,"capacity":23,"address":"古座川町大川490"},
{"No":792,"location":"松の木地蔵","long":135.351146,"lat":33.688368,"capacity":"","address":"白浜町1073番10"},
{"No":793,"location":"松原コミュニティセンター","long":135.280194,"lat":33.87013,"capacity":20,"address":"印南町松原90-1"},
{"No":794,"location":"松原小学校","long":135.1443753,"lat":33.88941676,"capacity":"","address":"美浜町吉原762"},
{"No":795,"location":"松原小学校体育館","long":135.1447607,"lat":33.8888183,"capacity":435,"address":"美浜町吉原762"},
{"No":796,"location":"松原地区公民館","long":135.1446584,"lat":33.889772,"capacity":63,"address":"美浜町吉原771-4"},
{"No":797,"location":"松原郵便局裏の松林","long":135.148051,"lat":33.886204,"capacity":"","address":""},
{"No":798,"location":"松根集会所","long":135.715476,"lat":33.6653109,"capacity":27,"address":"古座川町松根545"},
{"No":799,"location":"松瀬コミュニティセンター","long":135.216444,"lat":33.9209604,"capacity":"","address":"日高川町松瀬564-3"},
{"No":800,"location":"松尾寺周辺","long":135.237649,"lat":34.174432,"capacity":"","address":"海南市且来1221"},
{"No":801,"location":"松洋中学校","long":135.1368369,"lat":33.8906843,"capacity":"","address":"美浜町吉原762"},
{"No":802,"location":"松洋中学校体育館","long":135.1368369,"lat":33.8906843,"capacity":935,"address":"美浜町吉原762"},
{"No":803,"location":"沼区民センター","long":135.3868983,"lat":34.1013337,"capacity":55,"address":"有田川町沼1415"},
{"No":804,"location":"沼谷地区集会所","long":135.4681336,"lat":34.131756,"capacity":50,"address":"有田川町沼谷272"},
{"No":805,"location":"鐘巻会館","long":135.1741435,"lat":33.9166595,"capacity":"","address":"日高川町鐘巻1469"},
{"No":806,"location":"上越方集会所","long":135.359379,"lat":33.96756,"capacity":"","address":"日高川町上越方21-5"},
{"No":807,"location":"上観音敷地","long":135.3876684,"lat":33.6797805,"capacity":"","address":"白浜町堅田1507番"},
{"No":808,"location":"上岩出小学校","long":135.3258861,"lat":34.2702569,"capacity":350,"address":"岩出市水栖514"},
{"No":809,"location":"上岩出地区コミュニティーセンター","long":135.3282887,"lat":34.2758343,"capacity":30,"address":"岩出市北大池84-2"},
{"No":810,"location":"上志賀青年会場","long":135.1024898,"lat":33.9355963,"capacity":24,"address":"日高町志賀3486"},
{"No":811,"location":"上初湯川ふれあいの家","long":135.411366,"lat":33.995817,"capacity":"","address":"日高川町上初湯川723-11"},
{"No":812,"location":"上初湯川集会所","long":135.410026,"lat":33.995205,"capacity":"","address":"日高川町上初湯川83"},
{"No":813,"location":"上真国多目的集会所","long":135.3997361,"lat":34.1687804,"capacity":30,"address":"紀美野町花野原351-6"},
{"No":814,"location":"上神田地区高台周辺","long":135.219968,"lat":34.160194,"capacity":"","address":"海南市日方1397付近"},
{"No":815,"location":"上神野小学校体育館(休校中)","long":135.381567,"lat":34.143193,"capacity":149,"address":"紀美野町鎌滝107"},
{"No":816,"location":"上滝本集会所","long":135.2770916,"lat":33.9568102,"capacity":30,"address":"日高川町船津531"},
{"No":817,"location":"上中野集会所","long":135.175557,"lat":34.014376,"capacity":30,"address":"広川町上中野1188"},
{"No":818,"location":"上田原集会所","long":135.3270035,"lat":33.9618939,"capacity":30,"address":"日高川町上田原203"},
{"No":819,"location":"上洞生改センター","long":135.3422488,"lat":33.8851745,"capacity":21,"address":"印南町上洞1039-1"},
{"No":820,"location":"上南部小学校(校舎)","long":135.32843,"lat":33.791142,"capacity":"","address":"みなべ町谷口549"},
{"No":821,"location":"上南部小学校(体育館)","long":135.32843,"lat":33.791142,"capacity":"","address":"みなべ町谷口549"},
{"No":822,"location":"上南部中学校(校舎)","long":135.331372,"lat":33.791908,"capacity":"","address":"みなべ町東本庄91"},
{"No":823,"location":"上南部中学校(体育館)","long":135.331372,"lat":33.791908,"capacity":"","address":"みなべ町東本庄91"},
{"No":824,"location":"上南部保育所","long":135.3306198,"lat":33.7925807,"capacity":150,"address":"みなべ町東本庄98-1"},
{"No":825,"location":"上富田中学校","long":135.4333014,"lat":33.6990351,"capacity":900,"address":"上富田町岩田173-1"},
{"No":826,"location":"上富田町保健センター","long":135.430439,"lat":33.696531,"capacity":50,"address":"上富田町朝来755-1"},
{"No":827,"location":"上富田町役場庁舎","long":135.4288651,"lat":33.6963777,"capacity":350,"address":"上富田町朝来763"},
{"No":828,"location":"上富田福祉センター","long":135.4301708,"lat":33.6964363,"capacity":50,"address":"上富田町朝来755-1"},
{"No":829,"location":"上富田文化会館","long":135.42983,"lat":33.6969116,"capacity":1000,"address":"上富田町朝来758-1"},
{"No":830,"location":"上野山","long":135.217173,"lat":33.815874,"capacity":"","address":""},
{"No":831,"location":"上六川小学校","long":135.2547344,"lat":34.09618,"capacity":100,"address":"有田川町上六川136"},
{"No":832,"location":"城の平","long":135.605927,"lat":33.511934,"capacity":"","address":""},
{"No":833,"location":"城山公民館","long":135.357588,"lat":34.0705868,"capacity":55,"address":"有田川町二川398-1"},
{"No":834,"location":"城山西小学校体育館","long":135.356946,"lat":34.070195,"capacity":189,"address":"有田川町二川361"},
{"No":835,"location":"城山地区集会所周辺","long":135.207492,"lat":34.161632,"capacity":"","address":"海南市日方149-1"},
{"No":836,"location":"浄明寺","long":135.0857319,"lat":33.9700615,"capacity":50,"address":"由良町大引710"},
{"No":837,"location":"浄國寺周辺","long":135.204326,"lat":34.163486,"capacity":"","address":"海南市黒江976"},
{"No":838,"location":"埴田ちびっ子広場","long":135.327721,"lat":33.758161,"capacity":"","address":"みなべ町埴田929-2"},
{"No":839,"location":"埴田集落センター","long":135.3281591,"lat":33.7599952,"capacity":63,"address":"みなべ町埴田276-1"},
{"No":840,"location":"職業訓練法人中紀技能訓練協会","long":135.149451,"lat":33.9206917,"capacity":1878,"address":"日高町荊木310"},
{"No":841,"location":"色川出張所","long":135.8473113,"lat":33.6747744,"capacity":20,"address":"那智勝浦町大野2228-1"},
{"No":842,"location":"色川小学校","long":135.8479883,"lat":33.6752234,"capacity":352,"address":"那智勝浦町大野2410-1"},
{"No":843,"location":"色川中学校","long":135.8486397,"lat":33.6752688,"capacity":666,"address":"那智勝浦町大野2730-1"},
{"No":844,"location":"信行寺","long":135.10427,"lat":33.9887545,"capacity":70,"address":"由良町衣奈99"},
{"No":845,"location":"新規作物地域ブランド定着施設","long":135.472689,"lat":34.290037,"capacity":83,"address":"かつらぎ町笠田中256-17"},
{"No":846,"location":"新子ふるさと村","long":135.5499371,"lat":34.13156,"capacity":64,"address":"かつらぎ町花園新子96"},
{"No":847,"location":"新庄会館","long":135.3216826,"lat":33.7796041,"capacity":25,"address":"みなべ町気佐藤473"},
{"No":848,"location":"新庄幼稚園","long":135.4066966,"lat":33.7165951,"capacity":119,"address":"田辺市新庄町1437"},
{"No":849,"location":"新城農作業準備休養施設","long":135.5048752,"lat":34.1983573,"capacity":60,"address":"かつらぎ町新城879-1"},
{"No":850,"location":"新生町集会所","long":135.3099208,"lat":34.1561045,"capacity":26,"address":"紀美野町下佐々803-1"},
{"No":851,"location":"新田集会所","long":135.288246,"lat":33.958418,"capacity":"","address":"日高川町高津尾1060"},
{"No":852,"location":"新浜さざなみ荘","long":135.143576,"lat":33.885414,"capacity":54,"address":"美浜町吉原1093-3"},
{"No":853,"location":"新福寺","long":135.316273,"lat":33.777113,"capacity":"","address":"みなべ町山内848"},
{"No":854,"location":"森浦防災複合施設","long":135.9332944,"lat":33.59210556,"capacity":"","address":"太地町大字森浦143-29"},
{"No":855,"location":"森水道倉庫の二階","long":135.496194,"lat":33.547375,"capacity":"","address":""},
{"No":856,"location":"深専寺","long":135.177362,"lat":34.034991,"capacity":"","address":"湯浅町湯浅785"},
{"No":857,"location":"真国区民センター","long":135.374684,"lat":34.1695756,"capacity":67,"address":"紀美野町真国宮32-2"},
{"No":858,"location":"真砂区民倶楽部","long":135.6891182,"lat":33.5837055,"capacity":23,"address":"古座川町真砂128"},
{"No":859,"location":"神谷高台","long":135.0832361,"lat":33.96042602,"capacity":"","address":"由良町神谷地内"},
{"No":860,"location":"神谷高台登り口","long":135.0818472,"lat":33.95867869,"capacity":"","address":"由良町神谷地内"},
{"No":861,"location":"神谷老人憩の家","long":135.0851589,"lat":33.9585139,"capacity":50,"address":"由良町神谷241"},
{"No":862,"location":"神田トンネルの上","long":135.502328,"lat":33.553701,"capacity":"","address":""},
{"No":863,"location":"神田愛育文化センター","long":135.5033467,"lat":33.5584415,"capacity":30,"address":"すさみ町周参見3502-6"},
{"No":864,"location":"神田寺裏山","long":135.503103,"lat":33.557157,"capacity":"","address":""},
{"No":865,"location":"神田地蔵寺","long":135.218045,"lat":34.160209,"capacity":"","address":"海南市日方828付近"},
{"No":866,"location":"神田町立体育館","long":135.5021492,"lat":33.5586985,"capacity":200,"address":"すさみ町周参見3305-1"},
{"No":867,"location":"神野市場交流ふれあいセンター","long":135.3561121,"lat":34.1495462,"capacity":28,"address":"紀美野町神野市場269"},
{"No":868,"location":"吹井活性化支援センター","long":135.1021943,"lat":33.9674472,"capacity":40,"address":"由良町吹井390-1"},
{"No":869,"location":"吹井老人憩の家","long":135.1017273,"lat":33.9670702,"capacity":40,"address":"由良町吹井969-3"},
{"No":870,"location":"水道事務所","long":135.184088,"lat":34.027942,"capacity":"","address":"湯浅町別所331"},
{"No":871,"location":"杉野原活性化センター","long":135.5028141,"lat":34.1179463,"capacity":37,"address":"有田川町杉野原862"},
{"No":872,"location":"瀬戸１丁目町内会避難場所１","long":135.342938,"lat":33.685723,"capacity":"","address":"白浜町3315番"},
{"No":873,"location":"瀬戸１丁目町内会避難場所２","long":135.345604,"lat":33.686071,"capacity":"","address":"白浜町3504番"},
{"No":874,"location":"瀬戸１丁目町内会避難場所３","long":135.346757,"lat":33.687506,"capacity":"","address":"白浜町3475番"},
{"No":875,"location":"成川集会所","long":135.7153678,"lat":33.6443522,"capacity":21,"address":"古座川町成川690"},
{"No":876,"location":"栖原坂","long":135.172262,"lat":34.040467,"capacity":"","address":""},
{"No":877,"location":"清雲寺","long":135.7842871,"lat":33.6443041,"capacity":15,"address":"古座川町小森川175"},
{"No":878,"location":"清雲寺","long":135.8548637,"lat":33.6250665,"capacity":20,"address":"那智勝浦町西中野川724-2"},
{"No":879,"location":"清源寺","long":135.6758811,"lat":33.5762422,"capacity":30,"address":"古座川町長追260-2"},
{"No":880,"location":"清水公民館上湯川分館","long":135.4959383,"lat":34.063356,"capacity":20,"address":"有田川町上湯川426-1"},
{"No":881,"location":"清川きらく園","long":135.3961841,"lat":33.8520105,"capacity":30,"address":"みなべ町清川1267"},
{"No":882,"location":"清川公民館","long":135.398804,"lat":33.8533465,"capacity":300,"address":"みなべ町清川2223-3"},
{"No":883,"location":"清川小学校(体育館)","long":135.39982,"lat":33.849813,"capacity":500,"address":"みなべ町清川2340"},
{"No":884,"location":"清川中学校(体育館)","long":135.399451,"lat":33.854582,"capacity":"","address":"みなべ町清川2202"},
{"No":885,"location":"清掃センター","long":135.4206812,"lat":33.6820222,"capacity":64,"address":"白浜町保呂749番地"},
{"No":886,"location":"清流小学校","long":135.2624056,"lat":33.8387315,"capacity":103,"address":"印南町羽六776"},
{"No":887,"location":"生涯学習センター","long":135.330586,"lat":33.791589,"capacity":"","address":"みなべ町谷口301-4"},
{"No":888,"location":"生活改善センター","long":135.335961,"lat":33.975581,"capacity":"","address":"日高川町原日浦191"},
{"No":889,"location":"生石公民館","long":135.2455248,"lat":34.0704814,"capacity":50,"address":"有田川町糸野302-1"},
{"No":890,"location":"生馬公民館","long":135.4395905,"lat":33.6893373,"capacity":300,"address":"上富田町生馬1728-1"},
{"No":891,"location":"生馬小学校","long":135.4406264,"lat":33.6898373,"capacity":500,"address":"上富田町生馬1901"},
{"No":892,"location":"聖福寺敷地","long":135.3858957,"lat":33.6698464,"capacity":"","address":"白浜町堅田1211番地"},
{"No":893,"location":"西・北集会所","long":135.1784083,"lat":34.0294,"capacity":27,"address":"広川町広241-1"},
{"No":894,"location":"西ヶ峯小学校","long":135.278428,"lat":34.093944,"capacity":100,"address":"有田川町西ヶ峯1489"},
{"No":895,"location":"西ノ川集会所","long":135.461293,"lat":33.959871,"capacity":"","address":"日高川町寒川1323-1"},
{"No":896,"location":"西ノ地集会場","long":135.2446867,"lat":33.8042671,"capacity":12,"address":"印南町西ノ地1370-2"},
{"No":897,"location":"西越集会所敷地","long":135.3800773,"lat":33.6778306,"capacity":"","address":"白浜町堅田2487番地の6"},
{"No":898,"location":"西教寺","long":135.1075351,"lat":33.9866806,"capacity":70,"address":"由良町衣奈281"},
{"No":899,"location":"西原集会所","long":135.2869368,"lat":33.9609053,"capacity":30,"address":"日高川町西原47-1"},
{"No":900,"location":"西広公民館","long":135.156423,"lat":34.009379,"capacity":30,"address":"広川町西広628-1"},
{"No":901,"location":"西山口高速側道","long":135.220842,"lat":33.836344,"capacity":"","address":""},
{"No":902,"location":"西山麓","long":135.1146913,"lat":33.89661041,"capacity":"","address":""},
{"No":903,"location":"西渋田児童館","long":135.470517,"lat":34.277153,"capacity":85,"address":"かつらぎ町西渋田124-1"},
{"No":904,"location":"西赤木集会所","long":135.7781827,"lat":33.6234956,"capacity":11,"address":"古座川町西赤木93"},
{"No":905,"location":"���川生活改善センター","long":135.7086575,"lat":33.6378453,"capacity":55,"address":"古座川町西川621-1"},
{"No":906,"location":"西中村会場","long":135.2737656,"lat":33.7884151,"capacity":12,"address":"みなべ町西岩代1257-2"},
{"No":907,"location":"西鶴記念交流館","long":135.324293,"lat":33.971714,"capacity":"","address":"日高川町三十木96"},
{"No":908,"location":"西島児童会館","long":135.5383171,"lat":34.2960282,"capacity":8,"address":"九度山町慈尊院499"},
{"No":909,"location":"西日本電信電話㈱御坊別館ビル","long":135.155151,"lat":33.890232,"capacity":"","address":"御坊市薗210-1"},
{"No":910,"location":"西柏木会館","long":135.4915965,"lat":34.3081981,"capacity":"","address":"かつらぎ町柏木305-1"},
{"No":911,"location":"西飯降集会所","long":135.5267444,"lat":34.3063008,"capacity":76,"address":"かつらぎ町西飯降291"},
{"No":912,"location":"西富田小学校","long":135.386663,"lat":33.6627867,"capacity":667,"address":"白浜町才野47番地"},
{"No":913,"location":"西部センター","long":135.3620184,"lat":33.7335102,"capacity":77,"address":"田辺市天神崎11-19"},
{"No":914,"location":"西方寺周辺","long":135.135269,"lat":34.108699,"capacity":"","address":"下津町下津2464付近"},
{"No":915,"location":"西本庄区民会館","long":135.3266935,"lat":33.8068322,"capacity":50,"address":"みなべ町西本庄746"},
{"No":916,"location":"西本庄多目的集会場","long":135.3273317,"lat":33.80774,"capacity":"","address":"みなべ町西本庄773"},
{"No":917,"location":"西野集会所","long":135.3498322,"lat":34.1695412,"capacity":27,"address":"紀美野町西野691"},
{"No":918,"location":"税務署職員寮","long":135.1581333,"lat":33.89461111,"capacity":"","address":"御坊市島84-2"},
{"No":919,"location":"石垣記念館裏山","long":135.943016,"lat":33.601069,"capacity":"","address":""},
{"No":920,"location":"石垣公民館","long":135.2565122,"lat":34.0426395,"capacity":50,"address":"有田川町吉原1421-1"},
{"No":921,"location":"石垣公民館宇井苔分館","long":135.3348746,"lat":34.0149791,"capacity":50,"address":"有田川町宇井苔216-2"},
{"No":922,"location":"石垣小学校","long":135.2529169,"lat":34.0492023,"capacity":200,"address":"有田川町吉原792-1"},
{"No":923,"location":"石本病院","long":135.196002,"lat":34.159571,"capacity":"","address":"海南市船尾365"},
{"No":924,"location":"赤木高齢者ふれあい憩いの家","long":135.3862093,"lat":34.135571,"capacity":14,"address":"紀美野町赤木311"},
{"No":925,"location":"切目小学校","long":135.2354477,"lat":33.8023551,"capacity":120,"address":"印南町西ノ地536"},
{"No":926,"location":"切目川防災センター","long":135.2647985,"lat":33.8545233,"capacity":53,"address":"印南町古井623"},
{"No":927,"location":"仙光寺","long":135.225134,"lat":33.830783,"capacity":"","address":""},
{"No":928,"location":"千鹿浦広場","long":135.31535,"lat":33.769172,"capacity":"","address":"みなべ町山内1466-1"},
{"No":929,"location":"千手観音","long":135.243888,"lat":33.807911,"capacity":"","address":""},
{"No":930,"location":"千津川公民館","long":135.1833872,"lat":33.9303963,"capacity":"","address":"日高川町千津川4939"},
{"No":931,"location":"千津川福祉会館","long":135.185711,"lat":33.925813,"capacity":"","address":"日高川町千津川4600-1"},
{"No":932,"location":"専福寺","long":135.1136149,"lat":33.9650771,"capacity":50,"address":"由良町江ノ駒117"},
{"No":933,"location":"川関児童会館","long":135.9277468,"lat":33.6477805,"capacity":40,"address":"那智勝浦町川関341"},
{"No":934,"location":"川原河小学校","long":135.3720013,"lat":33.9829615,"capacity":500,"address":"日高川町川原河381-1"},
{"No":935,"location":"川口集会所","long":135.7781972,"lat":33.54259444,"capacity":39,"address":"古座川町川口221-1"},
{"No":936,"location":"川口地区集会所","long":135.184866,"lat":34.025342,"capacity":90,"address":"有田川町川口213"},
{"No":937,"location":"川添山村活性化支援センター","long":135.533837,"lat":33.657935,"capacity":"","address":"白浜町市鹿野1100番地"},
{"No":938,"location":"川辺西小学校","long":135.187282,"lat":33.9109155,"capacity":500,"address":"日高川町小熊3320-1"},
{"No":939,"location":"川又集会センター","long":135.356851,"lat":33.895523,"capacity":30,"address":"印南町川又334-2"},
{"No":940,"location":"浅間山","long":135.946666,"lat":33.601112,"capacity":"","address":""},
{"No":941,"location":"浅間集会所","long":135.368023,"lat":33.968329,"capacity":"","address":"日高川町浅間54"},
{"No":942,"location":"船着中学校","long":135.2913012,"lat":33.9604382,"capacity":300,"address":"日高川町高津尾266"},
{"No":943,"location":"船尾山ハイキングコース","long":135.195958,"lat":34.16189,"capacity":"","address":"海南市船尾地内"},
{"No":944,"location":"前山農道","long":135.163301,"lat":34.03942,"capacity":"","address":""},
{"No":945,"location":"前田公民館","long":135.2033806,"lat":33.9928545,"capacity":30,"address":"広川町前田540"},
{"No":946,"location":"善光寺","long":135.6736906,"lat":33.6160596,"capacity":36,"address":"古座川町添野川835"},
{"No":947,"location":"善宗寺","long":135.0940979,"lat":33.947178,"capacity":36,"address":"日高町志賀3852"},
{"No":948,"location":"善照寺","long":135.147518,"lat":34.004162,"capacity":"","address":"広川町唐尾255"},
{"No":949,"location":"禅定寺周辺","long":135.147318,"lat":34.120461,"capacity":"","address":"下津町方1157付近"},
{"No":950,"location":"曽屋教育集会所","long":135.3066234,"lat":34.2661202,"capacity":30,"address":"岩出市曽屋456-5"},
{"No":951,"location":"創価学会那智勝浦会館","long":135.93768,"lat":33.635848,"capacity":"","address":"那智勝浦町天満441"},
{"No":952,"location":"早蘇中学校","long":135.2236485,"lat":33.9358429,"capacity":500,"address":"日高川町蛇尾476-19"},
{"No":953,"location":"早藤集会所","long":135.2121901,"lat":33.9245082,"capacity":"","address":"日高川町早藤101"},
{"No":954,"location":"相瀬集会所","long":135.7272016,"lat":33.5484799,"capacity":29,"address":"古座川町相瀬227"},
{"No":955,"location":"総合センター","long":135.1763086,"lat":34.0390887,"capacity":504,"address":"湯浅町湯浅2707-1"},
{"No":956,"location":"総合体育館周辺","long":135.2305375,"lat":34.1564213,"capacity":"","address":"海南市大野中1106番地"},
{"No":957,"location":"総合福祉センター","long":135.311001,"lat":34.1521517,"capacity":400,"address":"紀美野町下佐々1408-4"},
{"No":958,"location":"荘厳寺","long":135.0871475,"lat":33.9397741,"capacity":20,"address":"日高町方杭65-1"},
{"No":959,"location":"蔵谷公園","long":135.290328,"lat":34.282445,"capacity":439,"address":"岩出市紀泉台427-2"},
{"No":960,"location":"多目的センター","long":135.942359,"lat":33.597022,"capacity":200,"address":"太地町太地2991-1"},
{"No":961,"location":"太間川僻地集会場","long":135.5089016,"lat":33.5997449,"capacity":50,"address":"すさみ町太間川273"},